{
  "NECA": {
    "VenueCode": "NECA",
    "VenueName": "New Empire Cinema: Kolkata",
    "VenueAddress": "1 and 2, Humayun Place, New Market Area, Dharmatala, Taltala, Kolkata, West Bengal 700087, India",
    "City": "Kolkata",
    "State": "West Bengal",
    "RegionCode": "KOLK",
    "SubRegionCode": "KOLK",
    "Latitude": "22.5605",
    "Longitude": "88.3515",
    "AvailableFormats": "2D"
  },
  "BJLC": {
    "VenueCode": "BJLC",
    "VenueName": "Bijoli Cinema: Kolkata",
    "VenueAddress": "No.39, Shyama Prasad Mukherjee Road, Jatin Das Park, Patuapara, Bhawanipur, Kolkata, West Bengal 700025, India",
    "City": "Kolkata",
    "State": "West Bengal",
    "RegionCode": "KOLK",
    "SubRegionCode": "KOLK",
    "Latitude": "22.5269",
    "Longitude": "88.3459",
    "AvailableFormats": "2D"
  },
  "BASU": {
    "VenueCode": "BASU",
    "VenueName": "Basusree Cinema: Kolkata",
    "VenueAddress": "102, S. P. Mukherjee Road, Near Jatin Das Metro Station, Kolkata, West Bengal 700026, India",
    "City": "Kolkata",
    "State": "West Bengal",
    "RegionCode": "BARR",
    "SubRegionCode": "BARR",
    "Latitude": "22.5226",
    "Longitude": "88.346",
    "AvailableFormats": "2D"
  },
  "RUPI": {
    "VenueCode": "RUPI",
    "VenueName": "Rupmandir Cinema: Belgharia",
    "VenueAddress": "40, Indrapuri, Beehive Garden, Near Feeder Road Viraat Bazaar, Kolkata, West Bengal 700056, India",
    "City": "Kolkata",
    "State": "West Bengal",
    "RegionCode": "KOLK",
    "SubRegionCode": "KOLK",
    "Latitude": "22.6606",
    "Longitude": "88.3889",
    "AvailableFormats": "2D"
  },
  "LCBK": {
    "VenueCode": "LCBK",
    "VenueName": "Lali Cinema: Barasat",
    "VenueAddress": "Krishnanagar Road, Norpara Halabot Tala, Barasat, Opposite Union Bank Of India Barasat Branch, Kolkata, West Bengal 700125, India",
    "City": "Kolkata",
    "State": "West Bengal",
    "RegionCode": "BSRT",
    "SubRegionCode": "BSRT",
    "Latitude": "22.7273",
    "Longitude": "88.48",
    "AvailableFormats": "2D"
  },
  "PMAC": {
    "VenueCode": "PMAC",
    "VenueName": "Padma Cinema: Kolkata",
    "VenueAddress": "Barasat Road, Sodepur, Anandalok, North 24 Paraganas, Kolkata, West Bengal 700110, India",
    "City": "Kolkata",
    "State": "West Bengal",
    "RegionCode": "KOLK",
    "SubRegionCode": "KOLK",
    "Latitude": "22.6953",
    "Longitude": "88.3976",
    "AvailableFormats": "2D"
  },
  "AMLC": {
    "VenueCode": "AMLC",
    "VenueName": "Amala Cinema: Barrackpore",
    "VenueAddress": "82, Barrackpore - Barasat Road, Barrackpore, Barrackpore, West Bengal 700122, India",
    "City": "Barrackpore",
    "State": "West Bengal",
    "RegionCode": "BARR",
    "SubRegionCode": "BARR",
    "Latitude": "22.7672",
    "Longitude": "88.3832",
    "AvailableFormats": "2D"
  },
  "LICL": {
    "VenueCode": "LICL",
    "VenueName": "Lila Cinema: Baruipur",
    "VenueAddress": "Baruipur - Champahati - Ghatakpukur Road, Phooltala Gate No.2, West Road South Par, Santoshpur, Baruipur - Canning Road, Kolkata, West Bengal 743387, India",
    "City": "Kolkata",
    "State": "West Bengal",
    "RegionCode": "KOLK",
    "SubRegionCode": "KOLK",
    "Latitude": "22.3431",
    "Longitude": "88.4554",
    "AvailableFormats": "2D"
  },
  "UDMM": {
    "VenueCode": "UDMM",
    "VenueName": "Utpal Dutta Mancha: Maheshtala",
    "VenueAddress": "Biren Roy Road W, Badamtala, Maheshtala, West Bengal 700141, India",
    "City": "Maheshtala",
    "State": "West Bengal",
    "RegionCode": "MAHS",
    "SubRegionCode": "MAHS",
    "Latitude": "22.4977",
    "Longitude": "88.2493",
    "AvailableFormats": "2D"
  },
  "STBZ": {
    "VenueCode": "STBZ",
    "VenueName": "Sobha Talkies: Betberia",
    "VenueAddress": "Near Belegachi, Post Office, Betberia, West Bengal 743363, India",
    "City": "Betberia",
    "State": "West Bengal",
    "RegionCode": "BETB",
    "SubRegionCode": "BETB",
    "Latitude": "22.3495",
    "Longitude": "88.5768",
    "AvailableFormats": "2D"
  },
  "UUBT": {
    "VenueCode": "UUBT",
    "VenueName": "Uma Talkies: Bakhrahat",
    "VenueAddress": "Roypur Road, Bakhrahat, Kolkata, Bakhrahat, West Bengal 743377, India",
    "City": "Bakhrahat",
    "State": "West Bengal",
    "RegionCode": "BART",
    "SubRegionCode": "BART",
    "Latitude": "22.3929",
    "Longitude": "88.2061",
    "AvailableFormats": "2D"
  },
  "SJKC": {
    "VenueCode": "SJKC",
    "VenueName": "Surajmukhi Cinemas: IGP Chandausi",
    "VenueAddress": "I Generation Point Mall, NH 509, Moradabad Agra National Highway, Dist. Sambhal, Sambhal, Uttar Pradesh 244412, India",
    "City": "Sambhal",
    "State": "Uttar Pradesh",
    "RegionCode": "SAML",
    "SubRegionCode": "SAML",
    "Latitude": "28.4569",
    "Longitude": "78.7401",
    "AvailableFormats": "2D"
  },
  "TUAL": {
    "VenueCode": "TUAL",
    "VenueName": "Tulsi Cinema: Sambhal",
    "VenueAddress": "Super Bazaar, PO Road, Tahsil Road, Sambhal, Uttar Pradesh 244302, India",
    "City": "Sambhal",
    "State": "Uttar Pradesh",
    "RegionCode": "SAML",
    "SubRegionCode": "SAML",
    "Latitude": "28.581",
    "Longitude": "78.5737",
    "AvailableFormats": "2D"
  },
  "MRSE": {
    "VenueCode": "MRSE",
    "VenueName": "Mukta A2 Cinemas: RSR Square Mall",
    "VenueAddress": "RSR Square , D NO. 1/700, SY NO 72/1, Dwaraka Nagar, R S Road, Nagarajupalli Village, Kadapa, Andhra Pradesh 516001, India",
    "City": "Kadapa",
    "State": "Andhra Pradesh",
    "RegionCode": "KDPA",
    "SubRegionCode": "KDPA",
    "Latitude": "14.4635",
    "Longitude": "78.8235",
    "AvailableFormats": "3D|2D"
  },
  "RMRK": {
    "VenueCode": "RMRK",
    "VenueName": "Ramesh Theatre A/C 4K Dolby Atmos: Kadapa",
    "VenueAddress": "Urlagattu Podu, Ganagapeta, Near Sujana Skin and Hair Care Clinic, Kadapa, Andhra Pradesh 516001, India",
    "City": "Kadapa",
    "State": "Andhra Pradesh",
    "RegionCode": "KDPA",
    "SubRegionCode": "KDPA",
    "Latitude": "14.4776",
    "Longitude": "78.8262",
    "AvailableFormats": "2D"
  },
  "TTKP": {
    "VenueCode": "TTKP",
    "VenueName": "Thahar Theater: Kadapa",
    "VenueAddress": "Ganagapeta, Near - HP Petrol Pump, Kadapa, Andhra Pradesh 516001, India",
    "City": "Kadapa",
    "State": "Andhra Pradesh",
    "RegionCode": "KDPA",
    "SubRegionCode": "KDPA",
    "Latitude": "14.4869",
    "Longitude": "78.8301",
    "AvailableFormats": "2D"
  },
  "KTKO": {
    "VenueCode": "KTKO",
    "VenueName": "Sri Venkateswara Theater Dolby Digital",
    "VenueAddress": "Bypass Road, Handadi, B.Kothakota, Andhra Pradesh 517370, India",
    "City": "B.Kothakota",
    "State": "Andhra Pradesh",
    "RegionCode": "BKOT",
    "SubRegionCode": "BKOT",
    "Latitude": "13.6586",
    "Longitude": "78.2672",
    "AvailableFormats": "2D"
  },
  "SDBK": {
    "VenueCode": "SDBK",
    "VenueName": "Sri Dwarakanatha Talkies: B Kothakota",
    "VenueAddress": "Madanapalli Road, Near Ayyappa Swamy Temple and Shivalayam, B.Kothakota, Andhra Pradesh 517370, India",
    "City": "B.Kothakota",
    "State": "Andhra Pradesh",
    "RegionCode": "BKOT",
    "SubRegionCode": "BKOT",
    "Latitude": "13.6567",
    "Longitude": "78.2659",
    "AvailableFormats": "2D"
  },
  "MCPR": {
    "VenueCode": "MCPR",
    "VenueName": "Mridhanga Cineplex 4K Dolby Atmos: Poovar",
    "VenueAddress": "Poovar Vizhinjam Road, Near Sruthi Royal Auditorium, Poovar, Kerala 695525, India",
    "City": "Poovar",
    "State": "Kerala",
    "RegionCode": "TRIV",
    "SubRegionCode": "TRIV",
    "Latitude": "8.3212",
    "Longitude": "77.0635",
    "AvailableFormats": "2D"
  },
  "CHTI": {
    "VenueCode": "CHTI",
    "VenueName": "Chhotu Maharaj Cine Cafe: Poovar, Kerala",
    "VenueAddress": "Cine Cafe Restaurant and Cineplex, Bridge Road, Opposite To Thuruthil Granite, Poovar, Kerala 695525, India",
    "City": "Poovar",
    "State": "Kerala",
    "RegionCode": "TRIV",
    "SubRegionCode": "TRIV",
    "Latitude": "8.31976",
    "Longitude": "77.0743",
    "AvailableFormats": "2D"
  },
  "GCCP": {
    "VenueCode": "GCCP",
    "VenueName": "Grandex Cinemas: Patan",
    "VenueAddress": "Ahmedabad - Patan Highway Road, Near Civil Hospital, Near GMRS,Patan, Dharpur, Gujarat 384265, India",
    "City": "Dharpur",
    "State": "Gujarat",
    "RegionCode": "DUUU",
    "SubRegionCode": "DUUU",
    "Latitude": "23.8439",
    "Longitude": "72.1881",
    "AvailableFormats": "2D"
  },
  "SRMY": {
    "VenueCode": "SRMY",
    "VenueName": "SR Cinemas: Manthani",
    "VenueAddress": "5-88/1, Vegetable Market Road, Manthani, Telangana 505184, India",
    "City": "Manthani",
    "State": "Telangana",
    "RegionCode": "MATY",
    "SubRegionCode": "MATY",
    "Latitude": "18.6338",
    "Longitude": "79.6552",
    "AvailableFormats": "2D"
  },
  "NYST": {
    "VenueCode": "NYST",
    "VenueName": "NY Cinemas: Swagat Mall",
    "VenueAddress": "3 Floor, Swagat Holiday Mall, Opposite Swagat Flamingo, Sargasan, Gandhinagar, Gujarat 382421, India",
    "City": "Gandhinagar",
    "State": "Gujarat",
    "RegionCode": "GNAGAR",
    "SubRegionCode": "GNAGAR",
    "Latitude": "23.189",
    "Longitude": "72.6096",
    "AvailableFormats": "2D"
  },
  "NYAG": {
    "VenueCode": "NYAG",
    "VenueName": "NY Cinemas: Chandkheda",
    "VenueAddress": "Aamrakunj Arne, 44TP Road, Nigam Nagar, Chandkheda, Near Gwalbhog, Ahmedabad, Gujarat 382424, India",
    "City": "Ahmedabad",
    "State": "Gujarat",
    "RegionCode": "GNAGAR",
    "SubRegionCode": "GNAGAR",
    "Latitude": "23.1176",
    "Longitude": "72.6098",
    "AvailableFormats": "2D"
  },
  "SBMT": {
    "VenueCode": "SBMT",
    "VenueName": "Sanelite Cinemas (SB Multiplex): Agora Mall",
    "VenueAddress": "200ft Ring Road, Near Tapovan Circle, Motera, Aagrah Banquet Hall, Gandhinagar, Ahmedabad, Gujarat 382424, India",
    "City": "Ahmedabad",
    "State": "Gujarat",
    "RegionCode": "GNAGAR",
    "SubRegionCode": "GNAGAR",
    "Latitude": "23.1189",
    "Longitude": "72.6247",
    "AvailableFormats": "2D"
  },
  "INGA": {
    "VenueCode": "INGA",
    "VenueName": "INOX: Gandhinagar, Adalaj",
    "VenueAddress": "Near Adalaj, Gandhinagar Sarkhej Highway, Near Tri Mandir, Gandhinagar, Gujarat 380055, India",
    "City": "Gandhinagar",
    "State": "Gujarat",
    "RegionCode": "GNAGAR",
    "SubRegionCode": "GNAGAR",
    "Latitude": "23.1803",
    "Longitude": "72.5653",
    "AvailableFormats": "2D"
  },
  "WSIC": {
    "VenueCode": "WSIC",
    "VenueName": "White Screen Cinema (Five 11): Gandhinagar",
    "VenueAddress": "Beside Sarita Udhyan, Near Indroda Park, Indroda, Gandhinagar, Gujarat 382021, India",
    "City": "Gandhinagar",
    "State": "Gujarat",
    "RegionCode": "GNAGAR",
    "SubRegionCode": "GNAGAR",
    "Latitude": "23.2022",
    "Longitude": "72.6574",
    "AvailableFormats": "2D"
  },
  "SCSS": {
    "VenueCode": "SCSS",
    "VenueName": "Sanelite Cinemas: Science City",
    "VenueAddress": "2nd Floor, The Obelisk, Science City Road, Ahmedabad, Gujarat 380060, India",
    "City": "Ahmedabad",
    "State": "Gujarat",
    "RegionCode": "GNAGAR",
    "SubRegionCode": "GNAGAR",
    "Latitude": "23.0796",
    "Longitude": "72.5014",
    "AvailableFormats": "2D"
  },
  "COPG": {
    "VenueCode": "COPG",
    "VenueName": "Connplex Cinemas (Signature): Gandhinagar",
    "VenueAddress": "301-308, Shreeji Signature, Sargasan, Near Reliance Crossroad, Gandhinagar, Gujarat 382028, India",
    "City": "Gandhinagar",
    "State": "Gujarat",
    "RegionCode": "GNAGAR",
    "SubRegionCode": "GNAGAR",
    "Latitude": "23.1848",
    "Longitude": "72.6229",
    "AvailableFormats": "2D"
  },
  "RCGR": {
    "VenueCode": "RCGR",
    "VenueName": "R World R21 Cinema: Gandhinagar",
    "VenueAddress": "R World Leisure Ltd, 2nd Floor, Sector 21, Gandhinagar, Gujarat 382021, India",
    "City": "Gandhinagar",
    "State": "Gujarat",
    "RegionCode": "GNAGAR",
    "SubRegionCode": "GNAGAR",
    "Latitude": "23.2314",
    "Longitude": "72.6682",
    "AvailableFormats": "2D"
  },
  "TCZA": {
    "VenueCode": "TCZA",
    "VenueName": "The Cinestar Miniplex: Bhat Circle, SP Ring Road",
    "VenueAddress": "201, Xperia, 2nd Floor, Opposite Agora Mall, Bhat Circle, Gandhinagar, Ahmedabad, Gujarat 382424, India",
    "City": "Ahmedabad",
    "State": "Gujarat",
    "RegionCode": "GNAGAR",
    "SubRegionCode": "GNAGAR",
    "Latitude": "23.117",
    "Longitude": "72.6288",
    "AvailableFormats": "2D"
  },
  "CNLP": {
    "VenueCode": "CNLP",
    "VenueName": "Connplex Cinemas (Luxuriance): Vaishnodevi",
    "VenueAddress": "1st Floor, Master Avenue, Gandhinagar, Near - Vaishnodevi Circle, Ahmedabad, Gujarat 382421, India",
    "City": "Ahmedabad",
    "State": "Gujarat",
    "RegionCode": "GNAGAR",
    "SubRegionCode": "GNAGAR",
    "Latitude": "23.1461",
    "Longitude": "72.5463",
    "AvailableFormats": "3D|2D"
  },
  "CLKN": {
    "VenueCode": "CLKN",
    "VenueName": "Classic Cinema, Kudasan: Gandhinagar",
    "VenueAddress": "6th Floor, F- Block, Pramukh Anand Mall, Gandhinagar, Gujarat 382421, India",
    "City": "Gandhinagar",
    "State": "Gujarat",
    "RegionCode": "GNAGAR",
    "SubRegionCode": "GNAGAR",
    "Latitude": "23.1845",
    "Longitude": "72.6303",
    "AvailableFormats": "2D"
  },
  "LHDF": {
    "VenueCode": "LHDF",
    "VenueName": "LHD Cinemas: Chandkheda",
    "VenueAddress": "5th Floor,Sai Sapphire Square, BRTS Zundal Chandkheda, Opposite Indian Oil Petrol Pump, Ahmedabad, Gujarat 382424, India",
    "City": "Ahmedabad",
    "State": "Gujarat",
    "RegionCode": "GNAGAR",
    "SubRegionCode": "GNAGAR",
    "Latitude": "23.1245",
    "Longitude": "72.5837",
    "AvailableFormats": "2D"
  },
  "ELKC": {
    "VenueCode": "ELKC",
    "VenueName": "Eylex Cinemas: Jhumri Telaiya, Koderma",
    "VenueAddress": "Eylex Cinemas, Jhumri Telaiya, Ujala complex, Ranchi Patna Road, Koderma, Jharkhand 825409, India",
    "City": "Koderma",
    "State": "Jharkhand",
    "RegionCode": "KODZ",
    "SubRegionCode": "KODZ",
    "Latitude": "24.4367",
    "Longitude": "85.5349",
    "AvailableFormats": "2D"
  },
  "VCEM": {
    "VenueCode": "VCEM",
    "VenueName": "Venu Gopala Picture Palace: Lakkavaram",
    "VenueAddress": "Sakhinetipalli - Razole Road, Near Post Office Lakkavaram, Lakkavaram, Andhra Pradesh 533254, India",
    "City": "Lakkavaram",
    "State": "Andhra Pradesh",
    "RegionCode": "LRAM",
    "SubRegionCode": "LRAM",
    "Latitude": "16.4206",
    "Longitude": "81.8411",
    "AvailableFormats": "2D"
  },
  "SSZA": {
    "VenueCode": "SSZA",
    "VenueName": "Sri Satya Theatre 2k A/c Dts: Neelapalli",
    "VenueAddress": "Neelapalli Road, Yanam, Puducherry, Neelapalli, Andhra Pradesh 533464, India",
    "City": "Neelapalli",
    "State": "Andhra Pradesh",
    "RegionCode": "NELP",
    "SubRegionCode": "NELP",
    "Latitude": "16.7339",
    "Longitude": "82.2204",
    "AvailableFormats": "2D"
  },
  "KRMT": {
    "VenueCode": "KRMT",
    "VenueName": "Krishna Metro Cinema: Sakti",
    "VenueAddress": "1st Floor, Jindal Plaza Station Road, Sakti Marg, Sakti, Chhattisgarh 495689, India",
    "City": "Sakti",
    "State": "Chhattisgarh",
    "RegionCode": "SAKT",
    "SubRegionCode": "SAKT",
    "Latitude": "22.0182",
    "Longitude": "82.9593",
    "AvailableFormats": "2D"
  },
  "LCMV": {
    "VenueCode": "LCMV",
    "VenueName": "Laxmi Chitramandir: Kankavli",
    "VenueAddress": "Achara Road, Near - Police Station, Kalmath, Kankavli, Maharashtra 416602, India",
    "City": "Kankavli",
    "State": "Maharashtra",
    "RegionCode": "KNKS",
    "SubRegionCode": "KNKS",
    "Latitude": "16.2655",
    "Longitude": "73.7061",
    "AvailableFormats": "2D"
  },
  "AYCZ": {
    "VenueCode": "AYCZ",
    "VenueName": "Aaradhya Cinema: Sawantwadi, Zarap",
    "VenueAddress": "Zarap Zero Point, Kudal Sindhudurg, Near Nemale Bridge, Zarap, Maharashtra 416510, India",
    "City": "Zarap",
    "State": "Maharashtra",
    "RegionCode": "ZARA",
    "SubRegionCode": "ZAEA",
    "Latitude": "15.9309",
    "Longitude": "73.756",
    "AvailableFormats": "2D"
  },
  "CUMS": {
    "VenueCode": "CUMS",
    "VenueName": "Chhotu Maharaj CineCafe: Sindhudurg",
    "VenueAddress": "155/2 Siddhi Cinema, A/P Oros, Opp RTO Office, Sindhudurg, Maharashtra 416812, India",
    "City": "Sindhudurg",
    "State": "Maharashtra",
    "RegionCode": "SNDH",
    "SubRegionCode": "SNDH",
    "Latitude": "16.1148",
    "Longitude": "73.7084",
    "AvailableFormats": "2D"
  },
  "BOCK": {
    "VenueCode": "BOCK",
    "VenueName": "Bosco Cinemas: Kuravilangad",
    "VenueAddress": "State Highway 1, Kurishupally, Kuravilangad, Near Global Collections, Kuravilangad, Kerala 686633, India",
    "City": "Kuravilangad",
    "State": "Kerala",
    "RegionCode": "KURA",
    "SubRegionCode": "KURA",
    "Latitude": "9.75721",
    "Longitude": "76.561",
    "AvailableFormats": "2D"
  },
  "PNMR": {
    "VenueCode": "PNMR",
    "VenueName": "PVR: Nucleus Mall, Ranchi",
    "VenueAddress": "4th Floor, Nuclues Mall, Lalpur Circular Road, Next to CJM Residance, Near Women College, Ranchi, Jharkhand 834001, India",
    "City": "Ranchi",
    "State": "Jharkhand",
    "RegionCode": "RANC",
    "SubRegionCode": "RANC",
    "Latitude": "23.377",
    "Longitude": "85.3316",
    "AvailableFormats": "3D|2D"
  },
  "PJCP": {
    "VenueCode": "PJCP",
    "VenueName": "PJP Cinemas: Mall of Ranchi",
    "VenueAddress": "3rd Floor, Mall of Ranchi, Ratu Road Chowk, Opposite Akashwani Kendra, Ranchi, Jharkhand 834001, India",
    "City": "Ranchi",
    "State": "Jharkhand",
    "RegionCode": "RANC",
    "SubRegionCode": "RANC",
    "Latitude": "23.3786",
    "Longitude": "85.3148",
    "AvailableFormats": "2D|3D"
  },
  "JDDD": {
    "VenueCode": "JDDD",
    "VenueName": "JD Cinemas: JD HI Street Mall, Ranchi",
    "VenueAddress": "JD High Street Mall, 07th Floor, Mahatma Gandhi Main Road, Opposite - GEL Church Complex, Ranchi, Jharkhand 834001, India",
    "City": "Ranchi",
    "State": "Jharkhand",
    "RegionCode": "RANC",
    "SubRegionCode": "RANC",
    "Latitude": "23.358",
    "Longitude": "85.3247",
    "AvailableFormats": "2D|3D"
  },
  "STMS": {
    "VenueCode": "STMS",
    "VenueName": "Miraj Cinemas: Sandhya Tower, Ranchi",
    "VenueAddress": "4th Floor, Dangra Toli Chowk, Sandhya Tower, Purulia Road, Ajit Enclave, Lalpur, Ranchi, Jharkhand 834001, India",
    "City": "Ranchi",
    "State": "Jharkhand",
    "RegionCode": "RANC",
    "SubRegionCode": "RANC",
    "Latitude": "23.368",
    "Longitude": "85.3396",
    "AvailableFormats": "2D|3D"
  },
  "FLMB": {
    "VenueCode": "FLMB",
    "VenueName": "Fun Cinemas: Springcity, Ranchi",
    "VenueAddress": "Spring City Mall, Hinoo Main Road, Beside Hinoo Bridge, Ranchi, Jharkhand 834002, India",
    "City": "Ranchi",
    "State": "Jharkhand",
    "RegionCode": "RANC",
    "SubRegionCode": "RANC",
    "Latitude": "23.3331",
    "Longitude": "85.3171",
    "AvailableFormats": "2D|3D"
  },
  "PKCM": {
    "VenueCode": "PKCM",
    "VenueName": "Popkorn Cinemas: Galaxia Mall, Ranchi",
    "VenueAddress": "Galaxia Mall, Ratu Road, Ranchi, Jharkhand 834005, India",
    "City": "Ranchi",
    "State": "Jharkhand",
    "RegionCode": "RANC",
    "SubRegionCode": "RANC",
    "Latitude": "23.3809",
    "Longitude": "85.3",
    "AvailableFormats": "2D"
  },
  "SPPR": {
    "VenueCode": "SPPR",
    "VenueName": "Sujata Picture Palace: Ranchi",
    "VenueAddress": "P P Compound, Main Road, Sujata Chowk, Ranchi, Jharkhand 834001, India",
    "City": "Ranchi",
    "State": "Jharkhand",
    "RegionCode": "RANC",
    "SubRegionCode": "RANC",
    "Latitude": "23.3532",
    "Longitude": "85.3235",
    "AvailableFormats": "2D"
  },
  "EYLH": {
    "VenueCode": "EYLH",
    "VenueName": "Eylex Cinemas: Hinoo",
    "VenueAddress": "Hinoo Main Road, Shukla Colony,Opposite River View Restaurant, Ranchi, Jharkhand 834002, India",
    "City": "Ranchi",
    "State": "Jharkhand",
    "RegionCode": "RANC",
    "SubRegionCode": "RANC",
    "Latitude": "23.3328",
    "Longitude": "85.3171",
    "AvailableFormats": "2D"
  },
  "RJCC": {
    "VenueCode": "RJCC",
    "VenueName": "Rohini: Jayanthy, Cheyyur",
    "VenueAddress": "Polur Road, Vandavasi, Near Theepanjamman Temple, Cheyyur, Tamil Nadu 603302, India",
    "City": "Cheyyur",
    "State": "Tamil Nadu",
    "RegionCode": "CHYR",
    "SubRegionCode": "CHYR",
    "Latitude": "12.3556",
    "Longitude": "79.9974",
    "AvailableFormats": "2D"
  },
  "MMPS": {
    "VenueCode": "MMPS",
    "VenueName": "NY Cinemas: 1 Millenium Plaza, Surendranagar",
    "VenueAddress": "Millenium Plaza, Upasana Circle, Taluka Wadhwan, Surendranagar, Gujarat 363030, India",
    "City": "Surendranagar",
    "State": "Gujarat",
    "RegionCode": "SRDN",
    "SubRegionCode": "SRDN",
    "Latitude": "22.7192",
    "Longitude": "71.6553",
    "AvailableFormats": "2D"
  },
  "SHMX": {
    "VenueCode": "SHMX",
    "VenueName": "Shiv Miniplex: Surendranagar",
    "VenueAddress": "Laxmi Nagar, Wadhwan, Surendranagar, Near Hotel Shiv International, Opposite Bus stand, Surendranagar, Gujarat 363002, India",
    "City": "Surendranagar",
    "State": "Gujarat",
    "RegionCode": "SRDN",
    "SubRegionCode": "SRDN",
    "Latitude": "22.7211",
    "Longitude": "71.6497",
    "AvailableFormats": "2D"
  },
  "CCNL": {
    "VenueCode": "CCNL",
    "VenueName": "Chhotu Maharaj Cine Cafe: Nalbari",
    "VenueAddress": "National Highway 31, 5th Floor, Barkura Banekuchi, Nalbari, Assam 781340, India",
    "City": "Nalbari",
    "State": "Assam",
    "RegionCode": "NALB",
    "SubRegionCode": "NALB",
    "Latitude": "26.4543",
    "Longitude": "91.4094",
    "AvailableFormats": "2D"
  },
  "RCNV": {
    "VenueCode": "RCNV",
    "VenueName": "Rajhans Cinemas: Navsari",
    "VenueAddress": "Italwa Gaon Next to Canal, Gandevi road, Navsari, Gujarat 313638, India",
    "City": "Navsari",
    "State": "Gujarat",
    "RegionCode": "NVSR",
    "SubRegionCode": "NVSR",
    "Latitude": "20.9175",
    "Longitude": "72.9538",
    "AvailableFormats": "2D"
  },
  "MAAG": {
    "VenueCode": "MAAG",
    "VenueName": "Mukta A2 Cinemas: Giriraj",
    "VenueAddress": "Mukta A2 Cinemas, Giriraj, Station Road, Taskand Nagar, Vejalpore, Near Udipi Hotel, Navsari, Gujarat 396445, India",
    "City": "Navsari",
    "State": "Gujarat",
    "RegionCode": "NVSR",
    "SubRegionCode": "NVSR",
    "Latitude": "20.9502",
    "Longitude": "72.9171",
    "AvailableFormats": "2D"
  },
  "LXCM": {
    "VenueCode": "LXCM",
    "VenueName": "Laxmi Cine Magic Multiplex: Navsari",
    "VenueAddress": "Karwad Road, Fuwara, Navsari, Gujarat 396445, India",
    "City": "Navsari",
    "State": "Gujarat",
    "RegionCode": "NVSR",
    "SubRegionCode": "NVSR",
    "Latitude": "20.9543",
    "Longitude": "72.9229",
    "AvailableFormats": "2D"
  },
  "RCNI": {
    "VenueCode": "RCNI",
    "VenueName": "Royal Cinema: Navsari",
    "VenueAddress": "Paradise Tower, Station Road, Soni Samaj Vadi, Vejalpore, Opposite Civil Hospital, Navsari, Gujarat 396445, India",
    "City": "Navsari",
    "State": "Gujarat",
    "RegionCode": "NVSR",
    "SubRegionCode": "NVSR",
    "Latitude": "20.9501",
    "Longitude": "72.9178",
    "AvailableFormats": "2D"
  },
  "SNNI": {
    "VenueCode": "SNNI",
    "VenueName": "Star Cinemas: Navsari",
    "VenueAddress": "The Wilson Point Italwa Gandevi, Main Road, opp. Vishalnagar, Navsari, Gujarat 396463, India",
    "City": "Navsari",
    "State": "Gujarat",
    "RegionCode": "NVSR",
    "SubRegionCode": "NVSR",
    "Latitude": "20.9134",
    "Longitude": "72.9589",
    "AvailableFormats": "2D"
  },
  "LALC": {
    "VenueCode": "LALC",
    "VenueName": "Lal Palace Cineplex: Jagraon",
    "VenueAddress": "Moga Road, Kothe Fateh Din De, Jagraon, Punjab 142026, India",
    "City": "Jagraon",
    "State": "Punjab",
    "RegionCode": "JGRO",
    "SubRegionCode": "JGRO",
    "Latitude": "30.8111",
    "Longitude": "75.4725",
    "AvailableFormats": "2D"
  },
  "SOCN": {
    "VenueCode": "SOCN",
    "VenueName": "Star Omjee Cinema: Jagraon",
    "VenueAddress": "Opposite Power House, Sidhwan Bet Road, Jagraon, Punjab 142026, India",
    "City": "Jagraon",
    "State": "Punjab",
    "RegionCode": "JGRO",
    "SubRegionCode": "JGRO",
    "Latitude": "30.8198",
    "Longitude": "75.476",
    "AvailableFormats": "2D"
  },
  "JHTP": {
    "VenueCode": "JHTP",
    "VenueName": "Jaya Kerala Theatre: Parappanangadi",
    "VenueAddress": "Parappanangadi - Chemmad - Malappuram Road, Putharikkal, Parappanangadi, Kerala 676303, India",
    "City": "Parappanangadi",
    "State": "Kerala",
    "RegionCode": "PAVP",
    "SubRegionCode": "PAVP",
    "Latitude": "11.0456",
    "Longitude": "75.8642",
    "AvailableFormats": "2D"
  },
  "PITP": {
    "VenueCode": "PITP",
    "VenueName": "Pallavi Theatre: Parappanangadi",
    "VenueAddress": "Malappuram Road, Neduva, Parappanangadi, Kerala 676303, India",
    "City": "Parappanangadi",
    "State": "Kerala",
    "RegionCode": "PAVP",
    "SubRegionCode": "PAVP",
    "Latitude": "11.043",
    "Longitude": "75.8688",
    "AvailableFormats": "2D"
  },
  "CCKW": {
    "VenueCode": "CCKW",
    "VenueName": "My Cinemas: Singrauli",
    "VenueAddress": "Carnival Jalsa Talkies, Village Kachni, Ward No. 28, Waidhan, Near Chauhan Sheetgrih, Singrauli, Madhya Pradesh 486886, India",
    "City": "Singrauli",
    "State": "Madhya Pradesh",
    "RegionCode": "SNGR",
    "SubRegionCode": "SNGR",
    "Latitude": "24.0772",
    "Longitude": "82.5888",
    "AvailableFormats": "2D"
  },
  "MCMC": {
    "VenueCode": "MCMC",
    "VenueName": "MCM Cineplex: Waidhan",
    "VenueAddress": "Near Masjid Square, Talkies Road, Waidhan, Singrauli, Madhya Pradesh 486886, India",
    "City": "Singrauli",
    "State": "Madhya Pradesh",
    "RegionCode": "SNGR",
    "SubRegionCode": "SNGR",
    "Latitude": "24.0651",
    "Longitude": "82.6302",
    "AvailableFormats": "2D"
  },
  "DEES": {
    "VenueCode": "DEES",
    "VenueName": "Jagadeeswari Theatre A/C 4K Dolby Atmos: Markapur",
    "VenueAddress": "Bharathi Vidya Nikethan Road, Near Viswa Shanthi School Hostel, Markapur, Andhra Pradesh 523316, India",
    "City": "Markapur",
    "State": "Andhra Pradesh",
    "RegionCode": "MARK",
    "SubRegionCode": "MARK",
    "Latitude": "15.7435",
    "Longitude": "79.2716",
    "AvailableFormats": "2D"
  },
  "SABT": {
    "VenueCode": "SABT",
    "VenueName": "Sai Balaji Theater A/c 70 MM Dolby Atmos: Markapur",
    "VenueAddress": "Markapur Town Road, Gandhi Bazar Road, Markapur, Andhra Pradesh 523316, India",
    "City": "Markapur",
    "State": "Andhra Pradesh",
    "RegionCode": "MARK",
    "SubRegionCode": "MARK",
    "Latitude": "15.7417",
    "Longitude": "79.2652",
    "AvailableFormats": "2D"
  },
  "VSPP": {
    "VenueCode": "VSPP",
    "VenueName": "Visweswara Picture Palace: Markapur",
    "VenueAddress": "Jawahar Nagar Colony, Near Sadhana Junior College, Markapur, Andhra Pradesh 523316, India",
    "City": "Markapur",
    "State": "Andhra Pradesh",
    "RegionCode": "MARK",
    "SubRegionCode": "MARK",
    "Latitude": "15.743",
    "Longitude": "79.2755",
    "AvailableFormats": "2D"
  },
  "ABCT": {
    "VenueCode": "ABCT",
    "VenueName": "Arra Cinemas: Bodi",
    "VenueAddress": "P. H Road, Old bus stand, Bodinayakanur, Tamil Nadu 625513, India",
    "City": "Bodinayakanur",
    "State": "Tamil Nadu",
    "RegionCode": "BODI",
    "SubRegionCode": "BODI",
    "Latitude": "10.0077",
    "Longitude": "77.3531",
    "AvailableFormats": "2D"
  },
  "JVTB": {
    "VenueCode": "JVTB",
    "VenueName": "Theatre Jivan: Bodi",
    "VenueAddress": "Ammankulam, Subanchetty Street, Near Pandyan Grama Bank, Bodinayakanur, Tamil Nadu 625513, India",
    "City": "Bodinayakanur",
    "State": "Tamil Nadu",
    "RegionCode": "BODI",
    "SubRegionCode": "BODI",
    "Latitude": "10.01",
    "Longitude": "77.3497",
    "AvailableFormats": "2D"
  },
  "VCBD": {
    "VenueCode": "VCBD",
    "VenueName": "Vetri Cinemas: Bodi",
    "VenueAddress": "SH 100, Ammankulam, Bodinayakanur, Tamil Nadu 625513, India",
    "City": "Bodinayakanur",
    "State": "Tamil Nadu",
    "RegionCode": "BODI",
    "SubRegionCode": "BODI",
    "Latitude": "10.0105",
    "Longitude": "77.3471",
    "AvailableFormats": "2D"
  },
  "RMGG": {
    "VenueCode": "RMGG",
    "VenueName": "Ram Mohan Theater: Gampalagudem",
    "VenueAddress": "Gampalagudem - Tiruvuru Road, Near BSNL Office, Gampalagudem, Andhra Pradesh 521403, India",
    "City": "Gampalagudem",
    "State": "Andhra Pradesh",
    "RegionCode": "GMPL",
    "SubRegionCode": "GMPL",
    "Latitude": "16.9952",
    "Longitude": "80.5215",
    "AvailableFormats": "2D"
  },
  "RNMH": {
    "VenueCode": "RNMH",
    "VenueName": "Ranga Mahal Theater: Velugodu",
    "VenueAddress": "Velugodu - Abdullapuram Road, Near Velugodu Bus Stand, Velugodu, Andhra Pradesh 518533, India",
    "City": "Velugodu",
    "State": "Andhra Pradesh",
    "RegionCode": "VLGD",
    "SubRegionCode": "VLGD",
    "Latitude": "15.7168",
    "Longitude": "78.5655",
    "AvailableFormats": "2D"
  },
  "SPGL": {
    "VenueCode": "SPGL",
    "VenueName": "Sri Ramana Picture palace: Gadivemula",
    "VenueAddress": "MCHC+45M, kurnool, Near to Gadivemula Bus Stand, Gadivemula, Andhra Pradesh 518508, India",
    "City": "Gadivemula",
    "State": "Andhra Pradesh",
    "RegionCode": "VLGD",
    "SubRegionCode": "VLGD",
    "Latitude": "15.6778",
    "Longitude": "78.4204",
    "AvailableFormats": "2D"
  },
  "JTTR": {
    "VenueCode": "JTTR",
    "VenueName": "Ramesh Talkies: Jaisalmer",
    "VenueAddress": "Patwon Ki Haveliyan Road,Amar Sagar Pol,Jaisalmer, Rajasthan 345001, India",
    "City": "Jaisalmer",
    "State": "Rajasthan",
    "RegionCode": "JSMR",
    "SubRegionCode": "JSMR",
    "Latitude": "26.9178",
    "Longitude": "70.9136",
    "AvailableFormats": "2D"
  },
  "SICS": {
    "VenueCode": "SICS",
    "VenueName": "Sri Murugan(Yamuna)Full AC 4K 3D: Panachamoodu",
    "VenueAddress": "Panachamoodu, Mancode Post, Panachamoodu, Tamil Nadu 695001, India",
    "City": "Panachamoodu",
    "State": "Tamil Nadu",
    "RegionCode": "NAGE",
    "SubRegionCode": "NAGE",
    "Latitude": "8.42655",
    "Longitude": "77.1973",
    "AvailableFormats": "2D"
  },
  "SRMI": {
    "VenueCode": "SRMI",
    "VenueName": "Sri Madhava Theatre: Ieeja",
    "VenueAddress": "Ieeja - Gadwal Road, Near Akshara High School, Ieeja, Telangana 509127, India",
    "City": "Ieeja",
    "State": "Telangana",
    "RegionCode": "IEEJ",
    "SubRegionCode": "IEEJ",
    "Latitude": "16.0138",
    "Longitude": "77.6668",
    "AvailableFormats": "2D"
  },
  "SSIJ": {
    "VenueCode": "SSIJ",
    "VenueName": "Shiva Sai Deluxe Theatre: Ieeja",
    "VenueAddress": "Ieeja - Gadwal Road, Near Old Bus Stand, Ieeja, Telangana 509127, India",
    "City": "Ieeja",
    "State": "Telangana",
    "RegionCode": "IEEJ",
    "SubRegionCode": "IEEJ",
    "Latitude": "16.0197",
    "Longitude": "77.6684",
    "AvailableFormats": "2D"
  },
  "KFMT": {
    "VenueCode": "KFMT",
    "VenueName": "Karthika Fun Movies Thalikulam RGB 4K Laser Atmos",
    "VenueAddress": "Karthika Movies, National Highway 66, Thalikulam, Kerala 680569, India",
    "City": "Thalikulam",
    "State": "Kerala",
    "RegionCode": "THAI",
    "SubRegionCode": "THAI",
    "Latitude": "10.4413",
    "Longitude": "76.0938",
    "AvailableFormats": "2D"
  },
  "VBIT": {
    "VenueCode": "VBIT",
    "VenueName": "VB Cinemas 4K RGB Laser ATMOS: Thriprayar",
    "VenueAddress": "Kanyakumari Highway, Triprayar, Thriprayar, Kerala 680567, India",
    "City": "Thriprayar",
    "State": "Kerala",
    "RegionCode": "THAI",
    "SubRegionCode": "THAI",
    "Latitude": "10.408",
    "Longitude": "76.1107",
    "AvailableFormats": "2D"
  },
  "JKCT": {
    "VenueCode": "JKCT",
    "VenueName": "JK Cinemas 4K Dolby Atmos: Thriprayar",
    "VenueAddress": "Ground Floor,Dheehini Shopping Complex, Nattika,Thriprayar, Near Sree Narayana Hall, Thrissur, Kerala 680566, India",
    "City": "Thrissur",
    "State": "Kerala",
    "RegionCode": "THAI",
    "SubRegionCode": "THAI",
    "Latitude": "10.4195",
    "Longitude": "76.106",
    "AvailableFormats": "2D"
  },
  "GCGP": {
    "VenueCode": "GCGP",
    "VenueName": "Gold Cinema: Goldighi Municipal Mall, Silchar",
    "VenueAddress": "Gold Digital Cinema, Goldighi Municipal Mall, Nazirpatty, Silchar, Assam 788001, India",
    "City": "Silchar",
    "State": "Assam",
    "RegionCode": "SIL",
    "SubRegionCode": "SIL",
    "Latitude": "24.8229",
    "Longitude": "92.8001",
    "AvailableFormats": "2D|3D"
  },
  "GDCS": {
    "VenueCode": "GDCS",
    "VenueName": "Gold Cinema, Sadarghat Road: Silchar",
    "VenueAddress": "Entertainment Plaza, Barak Cha Sramik Union Building Complex, Sadarghat Road, Waris Industries, Silchar, Assam 788001, India",
    "City": "Silchar",
    "State": "Assam",
    "RegionCode": "SIL",
    "SubRegionCode": "SIL",
    "Latitude": "24.8284",
    "Longitude": "92.8033",
    "AvailableFormats": "2D"
  },
  "TRBA": {
    "VenueCode": "TRBA",
    "VenueName": "Treasure Cinema: Baihar",
    "VenueAddress": "Major District Road 26, Ward No.08, Near Sai Mandir, Baihar, Madhya Pradesh 481111, India",
    "City": "Baihar",
    "State": "Madhya Pradesh",
    "RegionCode": "BIAH",
    "SubRegionCode": "BIAH",
    "Latitude": "22.1039",
    "Longitude": "80.5595",
    "AvailableFormats": "2D"
  },
  "QUST": {
    "VenueCode": "QUST",
    "VenueName": "Quality Starworld: Padrauna",
    "VenueAddress": "PD City Mall, Kasiya Road, Padrauna, Uttar Pradesh 274304, India",
    "City": "Padrauna",
    "State": "Uttar Pradesh",
    "RegionCode": "PADR",
    "SubRegionCode": "PADR",
    "Latitude": "26.8945",
    "Longitude": "83.9786",
    "AvailableFormats": "2D"
  },
  "VSHM": {
    "VenueCode": "VSHM",
    "VenueName": "Vishnu Mahal Theater: Puttur",
    "VenueAddress": "KN Road, Near Puttur Municipal Library, Puttur, Andhra Pradesh 517583, India",
    "City": "Puttur",
    "State": "Andhra Pradesh",
    "RegionCode": "PUTT",
    "SubRegionCode": "PUTT",
    "Latitude": "13.4382",
    "Longitude": "79.5488",
    "AvailableFormats": "2D"
  },
  "SDCP": {
    "VenueCode": "SDCP",
    "VenueName": "SJ Cinemas Santhi: Puttur",
    "VenueAddress": "National Highway 205, Puttur Flyover, Near Bharat Petroleum, Puttur, Andhra Pradesh 517583, India",
    "City": "Puttur",
    "State": "Andhra Pradesh",
    "RegionCode": "PUTT",
    "SubRegionCode": "PUTT",
    "Latitude": "13.4454",
    "Longitude": "79.5515",
    "AvailableFormats": "2D"
  },
  "SNVS": {
    "VenueCode": "SNVS",
    "VenueName": "Srinivasa A/C 4K Dolby Atmos: Puttur",
    "VenueAddress": "Ramarao Colony, Puttur Satyavedu Road, Opposite Bus Stand, Puttur, Andhra Pradesh 517583, India",
    "City": "Puttur",
    "State": "Andhra Pradesh",
    "RegionCode": "PUTT",
    "SubRegionCode": "PUTT",
    "Latitude": "13.4357",
    "Longitude": "79.5537",
    "AvailableFormats": "2D"
  },
  "NYTO": {
    "VenueCode": "NYTO",
    "VenueName": "Narendra Talkies: Aurangabad",
    "VenueAddress": "Narendra Talkies, Yamunanagar Road, Aurangabad (Bihar), Bihar 824101, India",
    "City": "Aurangabad (Bihar)",
    "State": "Bihar",
    "RegionCode": "AUBI",
    "SubRegionCode": "AUBI",
    "Latitude": "24.7466",
    "Longitude": "84.3803",
    "AvailableFormats": "2D"
  },
  "URWC": {
    "VenueCode": "URWC",
    "VenueName": "Urich Cinema: Wardha",
    "VenueAddress": "Urich Mall, Aarti Talkis Square, Nagpur Road, Opposite - Indira Gandhi Putla, Wardha, Maharashtra 442001, India",
    "City": "Wardha",
    "State": "Maharashtra",
    "RegionCode": "WARD",
    "SubRegionCode": "WARD",
    "Latitude": "20.7489",
    "Longitude": "78.6055",
    "AvailableFormats": "2D|3D"
  },
  "GTWH": {
    "VenueCode": "GTWH",
    "VenueName": "Ganesh Talkies: Wardha",
    "VenueAddress": "Sevagram Road, Mahadevpura, Near District General Hospital, Wardha, Maharashtra 442001, India",
    "City": "Wardha",
    "State": "Maharashtra",
    "RegionCode": "WARD",
    "SubRegionCode": "WARD",
    "Latitude": "20.7372",
    "Longitude": "78.6028",
    "AvailableFormats": "2D|3D"
  },
  "PFCM": {
    "VenueCode": "PFCM",
    "VenueName": "Mint Cinemas A/C 2K 3D: Sulthan Bathery",
    "VenueAddress": "4th Floor, Mint Mall, Chungam, Near Trends, Sultan Bathery, Kerala 673592, India",
    "City": "Sultan Bathery",
    "State": "Kerala",
    "RegionCode": "SULY",
    "SubRegionCode": "SULY",
    "Latitude": "11.6643",
    "Longitude": "76.2617",
    "AvailableFormats": "2D"
  },
  "KRTA": {
    "VenueCode": "KRTA",
    "VenueName": "Krishna Theatre: Kazhakkoottam",
    "VenueAddress": "NH 47, Bypass Road, Near Bhima Theatre, Kazhakkoottam, Kerala 695582, India",
    "City": "Kazhakkoottam",
    "State": "Kerala",
    "RegionCode": "TRIV",
    "SubRegionCode": "TRIV",
    "Latitude": "8.5664",
    "Longitude": "76.875",
    "AvailableFormats": "2D"
  },
  "AXMC": {
    "VenueCode": "AXMC",
    "VenueName": "Aashirvad Cineplexx, GrandCentreMall: Muvattupuzha",
    "VenueAddress": "3rd Floor Grand Centre Mall, Thottumkalpeedika, Muvattupuzha, Kerala 686661, India",
    "City": "Muvattupuzha",
    "State": "Kerala",
    "RegionCode": "MUVA",
    "SubRegionCode": "MUVA",
    "Latitude": "9.98175",
    "Longitude": "76.5787",
    "AvailableFormats": "2D"
  },
  "EVMC": {
    "VenueCode": "EVMC",
    "VenueName": "EVM Latha 4k 3D RGB Pure laser 7.1: Muvattupuzha",
    "VenueAddress": "SH8, Kizhakkekara, Muvattupuzha, Near Nirmala Shopping Centre, Muvattupuzha, Kerala 686661, India",
    "City": "Muvattupuzha",
    "State": "Kerala",
    "RegionCode": "MUVA",
    "SubRegionCode": "MUVA",
    "Latitude": "9.97985",
    "Longitude": "76.5837",
    "AvailableFormats": "2D"
  },
  "HGSM": {
    "VenueCode": "HGSM",
    "VenueName": "Highstreet Cinema: Canton Highstreet, Muvattupuzha",
    "VenueAddress": "Bus Stand, 130 Junction, MC Road, Near KSRTC, Thottumkalpeedika, Muvattupuzha, Kerala 686673, India",
    "City": "Muvattupuzha",
    "State": "Kerala",
    "RegionCode": "MUVA",
    "SubRegionCode": "MUVA",
    "Latitude": "9.97568",
    "Longitude": "76.5801",
    "AvailableFormats": "2D"
  },
  "ACVM": {
    "VenueCode": "ACVM",
    "VenueName": "AGS Cinemas: Villivakkam",
    "VenueAddress": "No. 1/1, Mettu Street Villivakkam, Behind, Villivakkam Bus Depot, Chennai, Tamil Nadu 600049, India",
    "City": "Chennai",
    "State": "Tamil Nadu",
    "RegionCode": "PONE",
    "SubRegionCode": "PONE",
    "Latitude": "13.1047",
    "Longitude": "80.209",
    "AvailableFormats": "2D"
  },
  "PSKL": {
    "VenueCode": "PSKL",
    "VenueName": "PVR: SKLS Galaxy Mall, Red Hills Chennai",
    "VenueAddress": "4th Floor, SKLS Galaxy Mall, Survey No. 93/IC/2B, GNT Road Red Hills, Chennai, Tamil Nadu 600052, India",
    "City": "Chennai",
    "State": "Tamil Nadu",
    "RegionCode": "PONE",
    "SubRegionCode": "PONE",
    "Latitude": "13.1917",
    "Longitude": "80.1862",
    "AvailableFormats": "2D"
  },
  "RDMP": {
    "VenueCode": "RDMP",
    "VenueName": "Shree Radha Movie Park 4K Dolby Atmos: Redhills",
    "VenueAddress": "M.A Nagar, Ambedkar Street, Redhills, Near Redhills Bus Terminus, Chennai, Tamil Nadu 600052, India",
    "City": "Chennai",
    "State": "Tamil Nadu",
    "RegionCode": "PONE",
    "SubRegionCode": "PONE",
    "Latitude": "13.1931",
    "Longitude": "80.1834",
    "AvailableFormats": "2D"
  },
  "RHGH": {
    "VenueCode": "RHGH",
    "VenueName": "Rajhans Cinemas: Gandhidham",
    "VenueAddress": "Aditya Mall And Multiplex, DC 2, Gurukul Road, Gandhidham, Gujarat 370201, India",
    "City": "Gandhidham",
    "State": "Gujarat",
    "RegionCode": "KTCH",
    "SubRegionCode": "KTCH",
    "Latitude": "23.0752",
    "Longitude": "70.1164",
    "AvailableFormats": "2D"
  },
  "OMCM": {
    "VenueCode": "OMCM",
    "VenueName": "Om Cineplex: Gandhidham",
    "VenueAddress": "Om Cineplex, M/s Naren Enterprise, Plot No - A, WARD NO. 6  (COMMERCIAL) Ram Baugh Crossways,Gandhidham, Gujarat 370201, India",
    "City": "Gandhidham",
    "State": "Gujarat",
    "RegionCode": "KTCH",
    "SubRegionCode": "KTCH",
    "Latitude": "23.076",
    "Longitude": "70.1075",
    "AvailableFormats": "2D"
  },
  "DCCP": {
    "VenueCode": "DCCP",
    "VenueName": "Dharmatma Cinemark: Chakan, Pune",
    "VenueAddress": "City Plaza, Talegaon, Chakan Road, Pune, Maharashtra 410501, India",
    "City": "Pune",
    "State": "Maharashtra",
    "RegionCode": "KHED",
    "SubRegionCode": "KHED",
    "Latitude": "18.7516",
    "Longitude": "73.8353",
    "AvailableFormats": "2D"
  },
  "MCPB": {
    "VenueCode": "MCPB",
    "VenueName": "Mukta A2 Cinemas: Parv Plaza, Behror",
    "VenueAddress": "Parv Plaza, 5th Floor, A-15 B1, Phase 1, Riico Industrial Area, Behror, Rajasthan 301701, India",
    "City": "Behror",
    "State": "Rajasthan",
    "RegionCode": "BEHR",
    "SubRegionCode": "BEHR",
    "Latitude": "27.8948",
    "Longitude": "76.2976",
    "AvailableFormats": "2D|3D"
  },
  "ALCI": {
    "VenueCode": "ALCI",
    "VenueName": "Alpana Cinema: Vadodara",
    "VenueAddress": "Navapura, Bhatia Chawl, Pratap Nagar Road, Moghul Wada, Vadodara, Gujarat 390001, India",
    "City": "Vadodara",
    "State": "Gujarat",
    "RegionCode": "VAD",
    "SubRegionCode": "VAD",
    "Latitude": "22.2859",
    "Longitude": "73.2092",
    "AvailableFormats": "2D"
  },
  "BLMX": {
    "VenueCode": "BLMX",
    "VenueName": "Bansal Movieplex Gotri-Vasna Road: Vadodara",
    "VenueAddress": "Bansal Mall,Gotri - Bhayli Rd, Nilamber Char Rasta,Near, Saiyed Vasna, Gotri, Vadodara, Gujarat 390021, India",
    "City": "Vadodara",
    "State": "Gujarat",
    "RegionCode": "ANKV",
    "SubRegionCode": "ANKV",
    "Latitude": "22.3035",
    "Longitude": "73.1383",
    "AvailableFormats": "2D"
  },
  "BTMV": {
    "VenueCode": "BTMV",
    "VenueName": "Bansal Movieplex: Tarsali, Vadodara",
    "VenueAddress": "Amar Shraddha Society, Danteshwar, Tarsali, Vadodara, Gujarat 390004, India",
    "City": "Vadodara",
    "State": "Gujarat",
    "RegionCode": "VAD",
    "SubRegionCode": "VAD",
    "Latitude": "22.267",
    "Longitude": "73.2227",
    "AvailableFormats": "2D"
  },
  "FVPN": {
    "VenueCode": "FVPN",
    "VenueName": "Cinemarc Vihar: Pratapnagar",
    "VenueAddress": "9/10,Pratapnagar Road, Pratapnagar, Bhatia Chawl, Opposite Yogini Vasantdevi Hospital,Moghul Wada, Vadodara, Gujarat 390004, India",
    "City": "Vadodara",
    "State": "Gujarat",
    "RegionCode": "ANKV",
    "SubRegionCode": "ANKV",
    "Latitude": "22.2892",
    "Longitude": "73.2096",
    "AvailableFormats": "2D"
  },
  "CMAR": {
    "VenueCode": "CMAR",
    "VenueName": "Cinemarc: Akota, Vadodara",
    "VenueAddress": "3rd Floor, Galleria Mall, Ajit Nagar Society, Opposite D Mart,Sayajirao Nagar Gruh, Vadodara, Gujarat 390020, India",
    "City": "Vadodara",
    "State": "Gujarat",
    "RegionCode": "VAD",
    "SubRegionCode": "VAD",
    "Latitude": "22.3008",
    "Longitude": "73.169",
    "AvailableFormats": "2D"
  },
  "CEIM": {
    "VenueCode": "CEIM",
    "VenueName": "Cinemarc: New VIP Road",
    "VenueAddress": "3rd/4th Floor Earth Icon,New VIP Ring Road, Khodiyar Nagar Char Rasta,Near, Uma Char Rasta, Opposite Venice Villa, Khodiyar Nagar,Kishanwadi, Vadodara, Gujarat 390022, India",
    "City": "Vadodara",
    "State": "Gujarat",
    "RegionCode": "ANKV",
    "SubRegionCode": "ANKV",
    "Latitude": "22.3181",
    "Longitude": "73.228",
    "AvailableFormats": "2D|3D"
  },
  "CMVA": {
    "VenueCode": "CMVA",
    "VenueName": "Cinemera Multiplex: Vadodara",
    "VenueAddress": "2nd Floor, Vrundavan Mall, Vaghodia Dabhoi Ring Road, Near Parivar Char Rasta,Kendranagar, Above Sales India, Sarthi Nagar 2, Vadodara, Gujarat 390019, India",
    "City": "Vadodara",
    "State": "Gujarat",
    "RegionCode": "VAD",
    "SubRegionCode": "VAD",
    "Latitude": "22.2945",
    "Longitude": "73.238",
    "AvailableFormats": "2D|3D"
  },
  "CPIV": {
    "VenueCode": "CPIV",
    "VenueName": "Cinepolis: Inorbit Vadodara Mall",
    "VenueAddress": "2nd Floor, Inorbit Mall,Nr. Gunjan Tower, Gorwa Road, Gorwa, Opp. Alembic School, Vadodara, Gujarat 390023, India",
    "City": "Vadodara",
    "State": "Gujarat",
    "RegionCode": "VAD",
    "SubRegionCode": "VAD",
    "Latitude": "22.3227",
    "Longitude": "73.1662",
    "AvailableFormats": "2D|3D"
  },
  "CNPE": {
    "VenueCode": "CNPE",
    "VenueName": "Cineprime Cinema: Cinemall, Vadodara",
    "VenueAddress": "Cine Mall, 50, Race Course Road, Alkapuri, Near Natubhai Circle, Race Course, Vadodara, Gujarat 390007, India",
    "City": "Vadodara",
    "State": "Gujarat",
    "RegionCode": "VAD",
    "SubRegionCode": "VAD",
    "Latitude": "22.3105",
    "Longitude": "73.1589",
    "AvailableFormats": "2D"
  },
  "COLV": {
    "VenueCode": "COLV",
    "VenueName": "Connplex Cinemas (Luxuriance): Vadodara",
    "VenueAddress": "Kanha Center, 2nd Floor, RC Dutt Road, Alkapuri, Opposite Hotel Express Ardhana Society, Vadodara, Gujarat 390020, India",
    "City": "Vadodara",
    "State": "Gujarat",
    "RegionCode": "VAD",
    "SubRegionCode": "VAD",
    "Latitude": "22.3108",
    "Longitude": "73.1688",
    "AvailableFormats": "2D|3D"
  },
  "DNNV": {
    "VenueCode": "DNNV",
    "VenueName": "Deep Cinemas: Nizampura, Chhani Road",
    "VenueAddress": "Deep Cinemas, Deep Multiplex Pvt. Ltd, Behind Kiran Motors, Old Chhani Road, Chhani, Vadodara, Gujarat 390008, India",
    "City": "Vadodara",
    "State": "Gujarat",
    "RegionCode": "VAD",
    "SubRegionCode": "VAD",
    "Latitude": "22.3405",
    "Longitude": "73.1738",
    "AvailableFormats": "2D"
  },
  "HCAD": {
    "VenueCode": "HCAD",
    "VenueName": "Havelock Cineflix: Tarsali, Vadodara",
    "VenueAddress": "4th Floor, Siddharth Magnum Plus, Tarsali Danteshwar Ring Road, Beside Bansal Mall, Tarsali, Vadodara, Gujarat 390009, India",
    "City": "Vadodara",
    "State": "Gujarat",
    "RegionCode": "VAD",
    "SubRegionCode": "VAD",
    "Latitude": "22.2669",
    "Longitude": "73.2225",
    "AvailableFormats": "2D"
  },
  "TAKA": {
    "VenueCode": "TAKA",
    "VenueName": "INOX Taksh Galaxy Mall: Waghodia",
    "VenueAddress": "Taksh Galaxy Mall, Waghodia Bypass NH 8, Madhavpura, Vadodara, Gujarat 390019, India",
    "City": "Vadodara",
    "State": "Gujarat",
    "RegionCode": "VAD",
    "SubRegionCode": "VAD",
    "Latitude": "22.3012",
    "Longitude": "73.2549",
    "AvailableFormats": "2D|3D"
  },
  "INVD": {
    "VenueCode": "INVD",
    "VenueName": "INOX: Race Course Circle",
    "VenueAddress": "Race Course Road, Gopal Baug, Ellora Park, Vadodara, Gujarat 390007, India",
    "City": "Vadodara",
    "State": "Gujarat",
    "RegionCode": "VAD",
    "SubRegionCode": "VAD",
    "Latitude": "22.3131",
    "Longitude": "73.1579",
    "AvailableFormats": "2D|3D"
  },
  "IRMM": {
    "VenueCode": "IRMM",
    "VenueName": "INOX: Reliance Mega Mall, Vadodara",
    "VenueAddress": "Reliance Mega Mall, Old Padra Road, Muj Mahuda, Vadodara, Gujarat 390020, India",
    "City": "Vadodara",
    "State": "Gujarat",
    "RegionCode": "VAD",
    "SubRegionCode": "VAD",
    "Latitude": "22.2851",
    "Longitude": "73.1641",
    "AvailableFormats": "2D|3D"
  },
  "INSE": {
    "VenueCode": "INSE",
    "VenueName": "Infinity 7 Seas Cinema: Fatehganj",
    "VenueAddress": "4th Floor, Seven Seas Mall, IPCL Circle, Fatehgunj, Jayesh Colony, Vadodara, Gujarat 390002, India",
    "City": "Vadodara",
    "State": "Gujarat",
    "RegionCode": "VAD",
    "SubRegionCode": "VAD",
    "Latitude": "22.3229",
    "Longitude": "73.1866",
    "AvailableFormats": "2D"
  },
  "MRSW": {
    "VenueCode": "MRSW",
    "VenueName": "Miraj Cinemas: SWC Mall",
    "VenueAddress": "Plot No. 28, Ward No. 11, Next to Sun Pharma Research Center, Sun Pharma Road, Soudagar Park, Tandalja, Vadodara, Gujarat 390012, India",
    "City": "Vadodara",
    "State": "Gujarat",
    "RegionCode": "VAD",
    "SubRegionCode": "VAD",
    "Latitude": "22.2803",
    "Longitude": "73.1497",
    "AvailableFormats": "2D|3D"
  },
  "MCVD": {
    "VenueCode": "MCVD",
    "VenueName": "Movietime: S-Square Mall, Subhanpura, Vadodara",
    "VenueAddress": "3rd Floor, S-Square Complex, Above Dominos, Subhanpura, Beside Ganga Jamuna Hospital, Vadodara, Gujarat 390023, India",
    "City": "Vadodara",
    "State": "Gujarat",
    "RegionCode": "VAD",
    "SubRegionCode": "VAD",
    "Latitude": "22.3194",
    "Longitude": "73.1589",
    "AvailableFormats": "2D"
  },
  "MCSO": {
    "VenueCode": "MCSO",
    "VenueName": "Mukta A2 Cinemas (Opulence): The Emperor Mall",
    "VenueAddress": "The Emperor Mall, 2nd Floor, Beside VCA Ground, Vasna-Bhayli Road, Opposite Shakti Green Party Plot, Vadodara, Gujarat 391410, India",
    "City": "Vadodara",
    "State": "Gujarat",
    "RegionCode": "VAD",
    "SubRegionCode": "VAD",
    "Latitude": "22.2922",
    "Longitude": "73.1357",
    "AvailableFormats": "3D|2D"
  },
  "PEVM": {
    "VenueCode": "PEVM",
    "VenueName": "PVR: EVA Mall, Vadodara",
    "VenueAddress": "3rd Floor, Eva The Mall, C/O Ramesh Patel Estate, Manjalpur, Near Saraswat Complex, Vadodara, Gujarat 390011, India",
    "City": "Vadodara",
    "State": "Gujarat",
    "RegionCode": "VAD",
    "SubRegionCode": "VAD",
    "Latitude": "22.2731",
    "Longitude": "73.1882",
    "AvailableFormats": "2D|3D"
  },
  "PVNL": {
    "VenueCode": "PVNL",
    "VenueName": "PVR: Nilamber Triumph, Vadodara",
    "VenueAddress": "PVR Limited, Nilamber Triumph Mall, Vaoddara Gotri, Bhayli Road, Shwamegh Nagar, Saiyed Vasna, Vadodara, Gujarat 390007, India",
    "City": "Vadodara",
    "State": "Gujarat",
    "RegionCode": "VAD",
    "SubRegionCode": "VAD",
    "Latitude": "22.3016",
    "Longitude": "73.1388",
    "AvailableFormats": "2D|3D"
  },
  "PTCV": {
    "VenueCode": "PTCV",
    "VenueName": "PVR: TransCube, Vadodara",
    "VenueAddress": "3rd floor, VED trans CUBE Plaza, Vadodara Central Bus terminal, K. J. Patel marg, Opp. Main Railway station, Opp. Main Railway station, Vadodara, Gujarat 390005, India",
    "City": "Vadodara",
    "State": "Gujarat",
    "RegionCode": "VAD",
    "SubRegionCode": "VAD",
    "Latitude": "22.3133",
    "Longitude": "73.1813",
    "AvailableFormats": "2D|3D"
  },
  "PRTC": {
    "VenueCode": "PRTC",
    "VenueName": "Pratap Cinema: Vadodara",
    "VenueAddress": "Mangal Bazar, Mandvi, Near Sursagar Lake, Vadodara, Gujarat 390001, India",
    "City": "Vadodara",
    "State": "Gujarat",
    "RegionCode": "VAD",
    "SubRegionCode": "VAD",
    "Latitude": "22.3017",
    "Longitude": "73.2052",
    "AvailableFormats": "2D"
  },
  "RCVA": {
    "VenueCode": "RCVA",
    "VenueName": "Rajhans Cinemas: Vadodara",
    "VenueAddress": "Rajhans Business Hub, Raopura, Opp Raopura Tower, Vadodara, Gujarat 390001, India",
    "City": "Vadodara",
    "State": "Gujarat",
    "RegionCode": "VAD",
    "SubRegionCode": "VAD",
    "Latitude": "22.3037",
    "Longitude": "73.2014",
    "AvailableFormats": "2D"
  },
  "MTBN": {
    "VenueCode": "MTBN",
    "VenueName": "Mahendra Talkies: Barwani",
    "VenueAddress": "Moulana Azad Marg, Maa Vaishno Devi Road, Opposite Ganesh Temple, Near MPEB, Barwani, Madhya Pradesh 451551, India",
    "City": "Barwani",
    "State": "Madhya Pradesh",
    "RegionCode": "BRWN",
    "SubRegionCode": "BRWN",
    "Latitude": "22.0293",
    "Longitude": "74.9042",
    "AvailableFormats": "2D"
  },
  "LUCP": {
    "VenueCode": "LUCP",
    "VenueName": "The Lux Cinema: Petlad",
    "VenueAddress": "3rd Floor Yogi Icon, GJ SH 89, Shekhadi, Near Nayara Petrol Pump, Petlad, Gujarat 388450, India",
    "City": "Petlad",
    "State": "Gujarat",
    "RegionCode": "BORM",
    "SubRegionCode": "BORM",
    "Latitude": "22.4641",
    "Longitude": "72.7938",
    "AvailableFormats": "2D"
  },
  "FMPT": {
    "VenueCode": "FMPT",
    "VenueName": "Flamingo Cinemas: Petlad",
    "VenueAddress": "Novello Entertainment, Sunav Road, Near Sanatorium, Petlad, Gujarat 388450, India",
    "City": "Petlad",
    "State": "Gujarat",
    "RegionCode": "BORM",
    "SubRegionCode": "BORM",
    "Latitude": "22.4938",
    "Longitude": "72.8013",
    "AvailableFormats": "2D"
  },
  "JLSL": {
    "VenueCode": "JLSL",
    "VenueName": "Lalitha Sri Lalitha Theatre: Peddapuram",
    "VenueAddress": "7, Peddapuram Rajahmundry Main Road, Chadalada, Near Main Mosque, Peddapuram, Andhra Pradesh 533437, India",
    "City": "Peddapuram",
    "State": "Andhra Pradesh",
    "RegionCode": "PEDP",
    "SubRegionCode": "PEDP",
    "Latitude": "17.0801",
    "Longitude": "82.1326",
    "AvailableFormats": "2D"
  },
  "SBHA": {
    "VenueCode": "SBHA",
    "VenueName": "Sobha Theatre: Peddapuram",
    "VenueAddress": "Market Road, Near Peddapuram Library, Peddapuram, Andhra Pradesh 533437, India",
    "City": "Peddapuram",
    "State": "Andhra Pradesh",
    "RegionCode": "PEDP",
    "SubRegionCode": "PEDP",
    "Latitude": "17.0746",
    "Longitude": "82.1406",
    "AvailableFormats": "2D"
  },
  "SHRC": {
    "VenueCode": "SHRC",
    "VenueName": "Shriram Cinema: Shivpuri",
    "VenueAddress": "Fatehpur Road, Near Bypass Road, Shivpuri, Madhya Pradesh 473551, India",
    "City": "Shivpuri",
    "State": "Madhya Pradesh",
    "RegionCode": "SHIV",
    "SubRegionCode": "SHIV",
    "Latitude": "25.4151",
    "Longitude": "77.647",
    "AvailableFormats": "2D"
  },
  "AVPS": {
    "VenueCode": "AVPS",
    "VenueName": "Aashirvad Cineplexx: Pathanapuram",
    "VenueAddress": "3rd Floor,Town Center Mall, Near KSRTC Bus Stand, Pathanapuram, Kerala 689695, India",
    "City": "Pathanapuram",
    "State": "Kerala",
    "RegionCode": "PTPM",
    "SubRegionCode": "PTPM",
    "Latitude": "9.09231",
    "Longitude": "76.8557",
    "AvailableFormats": "2D"
  },
  "STPM": {
    "VenueCode": "STPM",
    "VenueName": "Seema Cineplex: Pathanapuram",
    "VenueAddress": "State Highway 8, K. P. Road, Opposite Evergreen Beauty Parlour, Pathanapuram, Kerala 689695, India",
    "City": "Pathanapuram",
    "State": "Kerala",
    "RegionCode": "PTPM",
    "SubRegionCode": "PTPM",
    "Latitude": "9.0931",
    "Longitude": "76.859",
    "AvailableFormats": "2D"
  },
  "ATRD": {
    "VenueCode": "ATRD",
    "VenueName": "Anna Theatre A/C: Erode",
    "VenueAddress": "Manikampalayam Housing Unit, Erode, Tamil Nadu, Near SSPE Cotton Mills, Erode, Tamil Nadu 638011, India",
    "City": "Erode",
    "State": "Tamil Nadu",
    "RegionCode": "EROD",
    "SubRegionCode": "EROD",
    "Latitude": "11.3451",
    "Longitude": "77.7087",
    "AvailableFormats": "2D"
  },
  "VTED": {
    "VenueCode": "VTED",
    "VenueName": "Sri Vishnu Theatre: Bhavani",
    "VenueAddress": "139/92, Main road, Thoppur-Mettur Dam-Bhavani-Erode Road, Opposite Bhavani Mosque, Erode, Tamil Nadu 638301, India",
    "City": "Erode",
    "State": "Tamil Nadu",
    "RegionCode": "EROD",
    "SubRegionCode": "EROD",
    "Latitude": "11.4414",
    "Longitude": "77.6823",
    "AvailableFormats": "2D"
  },
  "ACAI": {
    "VenueCode": "ACAI",
    "VenueName": "A Square Cinemas Annapoorani Dolby A/c 7.1 Sony 4K",
    "VenueAddress": "Vairapalayam Road, Thasildhar thottam, Near Aavin milk agency 83, Erode, Tamil Nadu 638001, India",
    "City": "Erode",
    "State": "Tamil Nadu",
    "RegionCode": "EROD",
    "SubRegionCode": "EROD",
    "Latitude": "11.3606",
    "Longitude": "77.7149",
    "AvailableFormats": "2D"
  },
  "SMAE": {
    "VenueCode": "SMAE",
    "VenueName": "Sri Murugan Theatre A/C DTS: Ammapettai",
    "VenueAddress": "National Highway 544H, Ammapettai, Near Hp Petrol Pump, Erode, Tamil Nadu 638311, India",
    "City": "Erode",
    "State": "Tamil Nadu",
    "RegionCode": "EROD",
    "SubRegionCode": "EROD",
    "Latitude": "11.6248",
    "Longitude": "77.7446",
    "AvailableFormats": "2D"
  },
  "VMAT": {
    "VenueCode": "VMAT",
    "VenueName": "VN Palace (Veeranarayana): Tanuku",
    "VenueAddress": "Atthili - Tanuku Road, Venkatarayapuram, Tanuku, Andhra Pradesh 534211, India",
    "City": "Tanuku",
    "State": "Andhra Pradesh",
    "RegionCode": "TANK",
    "SubRegionCode": "TANK",
    "Latitude": "16.7479",
    "Longitude": "81.6816",
    "AvailableFormats": "2D"
  },
  "LKCT": {
    "VenueCode": "LKCT",
    "VenueName": "Lakshmi Complex: Tanuku",
    "VenueAddress": "Lakshmi Complex, Velpur Road,Venkiatrayapuram, Near Kadharawara Sweet Shop, Tanuku, Andhra Pradesh 534211, India",
    "City": "Tanuku",
    "State": "Andhra Pradesh",
    "RegionCode": "TADP",
    "SubRegionCode": "TADP",
    "Latitude": "16.7493",
    "Longitude": "81.6831",
    "AvailableFormats": "2D"
  },
  "JTVK": {
    "VenueCode": "JTVK",
    "VenueName": "Sri Venkateswara Complex: Tanuku",
    "VenueAddress": "NH16, Ngo Colony, Palangi, Near Sri Vijayadurga temple, Tanuku, Andhra Pradesh 534211, India",
    "City": "Tanuku",
    "State": "Andhra Pradesh",
    "RegionCode": "TADP",
    "SubRegionCode": "TADP",
    "Latitude": "16.7597",
    "Longitude": "81.691",
    "AvailableFormats": "2D|3D"
  },
  "PRTY": {
    "VenueCode": "PRTY",
    "VenueName": "Pratyusha Complex: Tanuku",
    "VenueAddress": "Venkatarayapuram, Near Masjid E Hanfipet, Tanuku, Andhra Pradesh 534211, India",
    "City": "Tanuku",
    "State": "Andhra Pradesh",
    "RegionCode": "TADP",
    "SubRegionCode": "TADP",
    "Latitude": "16.7523",
    "Longitude": "81.687",
    "AvailableFormats": "2D"
  },
  "GETT": {
    "VenueCode": "GETT",
    "VenueName": "Geeta Talkies: Hindaun City",
    "VenueAddress": "SH 1, Keshav Pura, Opposite Government Girls Senior Secondary School, Hindaun City, Rajasthan 322230, India",
    "City": "Hindaun City",
    "State": "Rajasthan",
    "RegionCode": "HIND",
    "SubRegionCode": "HIND",
    "Latitude": "26.7284",
    "Longitude": "77.0333",
    "AvailableFormats": "2D"
  },
  "ESAP": {
    "VenueCode": "ESAP",
    "VenueName": "E-SQUARE Anusaya: Parbhani",
    "VenueAddress": "Anusaya, Gangakhed Road, Parbhani - Gangakhed State Highway, Near Flyover, Parbhani, Maharashtra 431401, India",
    "City": "Parbhani",
    "State": "Maharashtra",
    "RegionCode": "PARB",
    "SubRegionCode": "PARB",
    "Latitude": "19.2574",
    "Longitude": "76.7645",
    "AvailableFormats": "2D|3D"
  },
  "NCPM": {
    "VenueCode": "NCPM",
    "VenueName": "Naresh Cineplex: Parbhani",
    "VenueAddress": "National Highway 222, Masoom Colony, Jintoor Road, Parbhani, Maharashtra 431401, India",
    "City": "Parbhani",
    "State": "Maharashtra",
    "RegionCode": "PARB",
    "SubRegionCode": "PARB",
    "Latitude": "19.2664",
    "Longitude": "76.7624",
    "AvailableFormats": "2D"
  },
  "PCPA": {
    "VenueCode": "PCPA",
    "VenueName": "PVR: VRC, Patiala",
    "VenueAddress": "2nd Floor VRC City Multiplex Mall, Near ITBP Complex, Rajpura Road,  Heera Bagh Choura, Patiala, Punjab 147001, India",
    "City": "Patiala",
    "State": "Punjab",
    "RegionCode": "PATI",
    "SubRegionCode": "PATI",
    "Latitude": "30.3402",
    "Longitude": "76.4323",
    "AvailableFormats": "2D|3D"
  },
  "MMOM": {
    "VenueCode": "MMOM",
    "VenueName": "MovieMax: Omaxe Mall, Patiala (SRS Earlier)",
    "VenueAddress": "MovieMax, 2nd Floor, Omaxe Mall, Near Kali Mata Mandir, Patiala, Punjab 147001, India",
    "City": "Patiala",
    "State": "Punjab",
    "RegionCode": "PATI",
    "SubRegionCode": "PATI",
    "Latitude": "30.3373",
    "Longitude": "76.3943",
    "AvailableFormats": "2D|3D"
  },
  "PHUP": {
    "VenueCode": "PHUP",
    "VenueName": "Phul Cinema: Patiala",
    "VenueAddress": "40-D, Fountain Chowk, Chotti Baradari Road, Baradari, Patiala, Punjab 147001, India",
    "City": "Patiala",
    "State": "Punjab",
    "RegionCode": "PATI",
    "SubRegionCode": "PATI",
    "Latitude": "30.3312",
    "Longitude": "76.3901",
    "AvailableFormats": "2D"
  },
  "CCPI": {
    "VenueCode": "CCPI",
    "VenueName": "Capital Cinema: Patiala",
    "VenueAddress": "Mall Road, Near Court Complex, Patiala, Punjab 147001, India",
    "City": "Patiala",
    "State": "Punjab",
    "RegionCode": "PATI",
    "SubRegionCode": "PATI",
    "Latitude": "30.3392",
    "Longitude": "76.3994",
    "AvailableFormats": "2D"
  },
  "CNTD": {
    "VenueCode": "CNTD",
    "VenueName": "Connplex Cinemas (Signature): Sri Sri",
    "VenueAddress": "Housing Board Colony, Sasi College Road, Tadepalligudem, Andhra Pradesh 534101, India",
    "City": "Tadepalligudem",
    "State": "Andhra Pradesh",
    "RegionCode": "TADP",
    "SubRegionCode": "TADP",
    "Latitude": "16.8194",
    "Longitude": "81.524",
    "AvailableFormats": "2D"
  },
  "NLJR": {
    "VenueCode": "NLJR",
    "VenueName": "Sri Lakshmi Multiplex (Nova Cinemaz): Nallajerla",
    "VenueAddress": "Rajahmundry - Bhadrachalam Highway, Opp to Buchalupond, Nallajerla, Andhra Pradesh 534111, India",
    "City": "Nallajerla",
    "State": "Andhra Pradesh",
    "RegionCode": "TADP",
    "SubRegionCode": "TADP",
    "Latitude": "16.9555",
    "Longitude": "81.4172",
    "AvailableFormats": "2D"
  },
  "SRNG": {
    "VenueCode": "SRNG",
    "VenueName": "Sri Rangamahal Theatre: Tadepalligudem",
    "VenueAddress": "Sheshamahal Road, Sali Peta, Karri Satyavathi Nagar, Tadepalligudem, Andhra Pradesh 534101, India",
    "City": "Tadepalligudem",
    "State": "Andhra Pradesh",
    "RegionCode": "TADP",
    "SubRegionCode": "TADP",
    "Latitude": "16.8128",
    "Longitude": "81.53",
    "AvailableFormats": "2D"
  },
  "MHAL": {
    "VenueCode": "MHAL",
    "VenueName": "Sri Seshmahal Theatre: Tadepalligudem",
    "VenueAddress": "Sheshamahal Road, Karri Satyavathi Nagar, Tadepalligudem, Andhra Pradesh 534101, India",
    "City": "Tadepalligudem",
    "State": "Andhra Pradesh",
    "RegionCode": "TADP",
    "SubRegionCode": "TADP",
    "Latitude": "16.8126",
    "Longitude": "81.5299",
    "AvailableFormats": "2D"
  },
  "PNSM": {
    "VenueCode": "PNSM",
    "VenueName": "PVR: Nexus Mall Centre City, Mysuru",
    "VenueAddress": "3rd Floor, Hyderali Road, Mysuru (Mysore), Karnataka 570010, India",
    "City": "Mysuru (Mysore)",
    "State": "Karnataka",
    "RegionCode": "MYS",
    "SubRegionCode": "MYS",
    "Latitude": "12.3187",
    "Longitude": "76.6655",
    "AvailableFormats": "2D|3D"
  },
  "DRMY": {
    "VenueCode": "DRMY",
    "VenueName": "DRC Cinemas: BM Habitat Mall",
    "VenueAddress": "Gokulam Road, Jayalakshmipuram, Behind BM Hospital, Mysuru (Mysore), Karnataka 570012, India",
    "City": "Mysuru (Mysore)",
    "State": "Karnataka",
    "RegionCode": "MYS",
    "SubRegionCode": "MYS",
    "Latitude": "12.3221",
    "Longitude": "76.6208",
    "AvailableFormats": "2D|3D"
  },
  "CCMU": {
    "VenueCode": "CCMU",
    "VenueName": "Mysuru VISION Cinemas, Behind GRS Fantasy Park",
    "VenueAddress": "No 119 Metagalli Industrial Area, Metagalli, Behind GRS Fantasy Park, Opposite J K Golden Embassy, Mysuru (Mysore), Karnataka 570016, India",
    "City": "Mysuru (Mysore)",
    "State": "Karnataka",
    "RegionCode": "MYS",
    "SubRegionCode": "MYS",
    "Latitude": "12.3585",
    "Longitude": "76.6361",
    "AvailableFormats": "2D|3D"
  },
  "SCMY": {
    "VenueCode": "SCMY",
    "VenueName": "INOX: Mall of Mysuru",
    "VenueAddress": "Plot No. C1, 3rd Floor, Mall of Mysore, MG Road, Nazarbad Mohalla, Opposite Mysore Golf Club, Mysuru (Mysore), Karnataka 570010, India",
    "City": "Mysuru (Mysore)",
    "State": "Karnataka",
    "RegionCode": "MYS",
    "SubRegionCode": "MYS",
    "Latitude": "12.298",
    "Longitude": "76.6644",
    "AvailableFormats": "2D|3D"
  },
  "PVSY": {
    "VenueCode": "PVSY",
    "VenueName": "PVR: Garuda Mall, Albert Victor Road, Mysuru",
    "VenueAddress": "3rd Floor, Garuda Mall, Albert Victor Road, Agrahara, Mysuru (Mysore), Karnataka 570001, India",
    "City": "Mysuru (Mysore)",
    "State": "Karnataka",
    "RegionCode": "MYS",
    "SubRegionCode": "MYS",
    "Latitude": "12.3092",
    "Longitude": "76.6538",
    "AvailableFormats": "2D"
  },
  "SDLM": {
    "VenueCode": "SDLM",
    "VenueName": "Sangam Digital 2K Theatre Dolby 7.1: Mysuru",
    "VenueAddress": "Chandraguptha Road, Lashkar Mohalla, Mysuru (Mysore), Karnataka 570001, India",
    "City": "Mysuru (Mysore)",
    "State": "Karnataka",
    "RegionCode": "MYS",
    "SubRegionCode": "MYS",
    "Latitude": "12.3106",
    "Longitude": "76.6571",
    "AvailableFormats": "2D"
  },
  "ICCM": {
    "VenueCode": "ICCM",
    "VenueName": "INOX: Centro, Mysore",
    "VenueAddress": "INOX Leisure Ltd, 3rd Floor, Centro, Bangalore-Nilgiri Road, Mysuru (Mysore), Karnataka 570001, India",
    "City": "Mysuru (Mysore)",
    "State": "Karnataka",
    "RegionCode": "MYS",
    "SubRegionCode": "MYS",
    "Latitude": "12.3098",
    "Longitude": "76.6585",
    "AvailableFormats": "2D|3D"
  },
  "PYSU": {
    "VenueCode": "PYSU",
    "VenueName": "Prabha Theatre: Mysuru",
    "VenueAddress": "Hanumantha Rao Street, Post Box No. 62, Opposite Hotel Dasaprakash, Old Bank Road, Mysuru (Mysore), Karnataka 570001, India",
    "City": "Mysuru (Mysore)",
    "State": "Karnataka",
    "RegionCode": "MYS",
    "SubRegionCode": "MYS",
    "Latitude": "12.3112",
    "Longitude": "76.6538",
    "AvailableFormats": "2D"
  },
  "GATM": {
    "VenueCode": "GATM",
    "VenueName": "Gayathri Talkies: Mysuru, Christie Solaria 2K",
    "VenueAddress": "Chamaraja Double Road, K.R.Mohalla, Agrahara, Mysuru (Mysore), Karnataka 570024, India",
    "City": "Mysuru (Mysore)",
    "State": "Karnataka",
    "RegionCode": "MYS",
    "SubRegionCode": "MYS",
    "Latitude": "12.3018",
    "Longitude": "76.651",
    "AvailableFormats": "2D"
  },
  "WOTM": {
    "VenueCode": "WOTM",
    "VenueName": "Woodlands Digital 2K Cinema: Mysuru",
    "VenueAddress": "Woodland Theatre (Woodlands Picture House), Curzon Park Road, K.R.Circle, Opp Lido Theatre, Mysuru (Mysore), Karnataka 570001, India",
    "City": "Mysuru (Mysore)",
    "State": "Karnataka",
    "RegionCode": "MYS",
    "SubRegionCode": "MYS",
    "Latitude": "12.3087",
    "Longitude": "76.659",
    "AvailableFormats": "2D"
  },
  "RKTS": {
    "VenueCode": "RKTS",
    "VenueName": "Rajkamal Digital 2K Laser Projection: Mysore",
    "VenueAddress": "Yelwal Road, Shivarampet, Near Balaji palace Hotel, Mysuru (Mysore), Karnataka 570001, India",
    "City": "Mysuru (Mysore)",
    "State": "Karnataka",
    "RegionCode": "MYS",
    "SubRegionCode": "MYS",
    "Latitude": "12.3109",
    "Longitude": "76.6491",
    "AvailableFormats": "2D"
  },
  "PMTY": {
    "VenueCode": "PMTY",
    "VenueName": "Padma Talkies: Mysuru",
    "VenueAddress": "Ramachandra Agrahara, Near 101 Ganapathi Temple, Mysuru (Mysore), Karnataka 570004, India",
    "City": "Mysuru (Mysore)",
    "State": "Karnataka",
    "RegionCode": "MYS",
    "SubRegionCode": "MYS",
    "Latitude": "12.2964",
    "Longitude": "76.6521",
    "AvailableFormats": "2D"
  },
  "LYMS": {
    "VenueCode": "LYMS",
    "VenueName": "Lido Theatre: Mysuru",
    "VenueAddress": "Mandi Mohalla, Bangalore Nilgiri Road, Mysuru (Mysore), Karnataka 570001, India",
    "City": "Mysuru (Mysore)",
    "State": "Karnataka",
    "RegionCode": "MYS",
    "SubRegionCode": "MYS",
    "Latitude": "12.3088",
    "Longitude": "76.6595",
    "AvailableFormats": "2D"
  },
  "TGCA": {
    "VenueCode": "TGCA",
    "VenueName": "Ganga Cine House 4K Dolby Atmos: Attingal",
    "VenueAddress": "Mamom, Attingal, Trivandrum, Kerala 695103, India",
    "City": "Trivandrum",
    "State": "Kerala",
    "RegionCode": "VKAL",
    "SubRegionCode": "VKAL",
    "Latitude": "8.68219",
    "Longitude": "76.8235",
    "AvailableFormats": "2D"
  },
  "DSTA": {
    "VenueCode": "DSTA",
    "VenueName": "Dreams: Attingal",
    "VenueAddress": "Kanyakumari Highway, Panvel Kochi, Near Reliance trends, Trivandrum, Kerala 695103, India",
    "City": "Trivandrum",
    "State": "Kerala",
    "RegionCode": "VKAL",
    "SubRegionCode": "VKAL",
    "Latitude": "8.68464",
    "Longitude": "76.8232",
    "AvailableFormats": "2D"
  },
  "CNGE": {
    "VenueCode": "CNGE",
    "VenueName": "Greenfield Moviemax Cinemas: Trivandrum",
    "VenueAddress": "Green Field Stadium, Karyavattom.P.O, Near The Sports Hub, Trivandrum, Kerala 695581, India",
    "City": "Trivandrum",
    "State": "Kerala",
    "RegionCode": "VKAL",
    "SubRegionCode": "VKAL",
    "Latitude": "8.57061",
    "Longitude": "76.8841",
    "AvailableFormats": "2D"
  },
  "VSTG": {
    "VenueCode": "VSTG",
    "VenueName": "GTracks Screen 1- Sony 4K: Kadinamkulam",
    "VenueAddress": "Puthukurichy (P.O), Kaniyapuram, Near Kaniyapuram Government School, Trivandrum, Kerala 695303, India",
    "City": "Trivandrum",
    "State": "Kerala",
    "RegionCode": "VKAL",
    "SubRegionCode": "VKAL",
    "Latitude": "8.6045",
    "Longitude": "76.8193",
    "AvailableFormats": "2D"
  },
  "GTCK": {
    "VenueCode": "GTCK",
    "VenueName": "GTracks Screen 2 Sony 4K: Kadinamkulam",
    "VenueAddress": "Puthukurichy (P.O), Kaniyapuram, Near V Tracks Cinemas, Trivandrum, Kerala 695303, India",
    "City": "Trivandrum",
    "State": "Kerala",
    "RegionCode": "VKAL",
    "SubRegionCode": "VKAL",
    "Latitude": "8.60425",
    "Longitude": "76.8156",
    "AvailableFormats": "2D"
  },
  "TGNT": {
    "VenueCode": "TGNT",
    "VenueName": "New Theatre 4K RGB LASER Dolby Atmos: Trivandrum",
    "VenueAddress": "Near Railway Station, Thampanoor, Aristo Rd, Trivandrum, Kerala 695001, India",
    "City": "Trivandrum",
    "State": "Kerala",
    "RegionCode": "VKAL",
    "SubRegionCode": "VKAL",
    "Latitude": "8.48772",
    "Longitude": "76.9552",
    "AvailableFormats": "2D"
  },
  "ASLC": {
    "VenueCode": "ASLC",
    "VenueName": "Ariesplex SL Cinemas Cinionic Dolby Atmos",
    "VenueAddress": "Sahodara Samajam Road, near OverBridge, Thampanoor, Thiruvananthapuram, Trivandrum, Kerala 695035, India",
    "City": "Trivandrum",
    "State": "Kerala",
    "RegionCode": "VKAL",
    "SubRegionCode": "VKAL",
    "Latitude": "8.48853",
    "Longitude": "76.9461",
    "AvailableFormats": "2D"
  },
  "SSST": {
    "VenueCode": "SSST",
    "VenueName": "Sree Kaleeswary Sree Saraswathy 2K-3D: Kaliyikkav",
    "VenueAddress": "SMB Complex, Parasala PO, Kovalam Road, Kaliyikkavila, Trivandrum, Kerala 695502, India",
    "City": "Trivandrum",
    "State": "Kerala",
    "RegionCode": "VKAL",
    "SubRegionCode": "VKAL",
    "Latitude": "8.33161",
    "Longitude": "77.1645",
    "AvailableFormats": "2D"
  },
  "KBTT": {
    "VenueCode": "KBTT",
    "VenueName": "Kalabhavan Theatre Triple Beam 3D: Trivandrum",
    "VenueAddress": "Womens College Road, Chalachitra Kalabhavan CV Raman Pillai Road, Near Dianby Kids World, Trivandrum, Kerala 695014, India",
    "City": "Trivandrum",
    "State": "Kerala",
    "RegionCode": "VKAL",
    "SubRegionCode": "VKAL",
    "Latitude": "8.49955",
    "Longitude": "76.958",
    "AvailableFormats": "2D"
  },
  "HKCP": {
    "VenueCode": "HKCP",
    "VenueName": "HK Cinemas: Pothencode",
    "VenueAddress": "Kazhakoottam, Kilimanoor Road, Near State Bank of India, Trivandrum, Kerala 695584, India",
    "City": "Trivandrum",
    "State": "Kerala",
    "RegionCode": "VKAL",
    "SubRegionCode": "VKAL",
    "Latitude": "8.62134",
    "Longitude": "76.8995",
    "AvailableFormats": "2D"
  },
  "SWLC": {
    "VenueCode": "SWLC",
    "VenueName": "Swaram Layam Cinemas: Kattakada",
    "VenueAddress": "Kattakkada, Choondupalaka, Junction, Near Matha College Of Medical Technology, Trivandrum, Kerala 695572, India",
    "City": "Trivandrum",
    "State": "Kerala",
    "RegionCode": "VKAL",
    "SubRegionCode": "VKAL",
    "Latitude": "8.50461",
    "Longitude": "77.0886",
    "AvailableFormats": "2D"
  },
  "RTND": {
    "VenueCode": "RTND",
    "VenueName": "Rani Talkies 4K DOLBY ATMOS Nedumangadu",
    "VenueAddress": "Thiruvananthapuram Thenmala Road, Pazhakutty, Nedumangad, Near Kerala Gramin Bank, Trivandrum, Kerala 695541, India",
    "City": "Trivandrum",
    "State": "Kerala",
    "RegionCode": "VKAL",
    "SubRegionCode": "VKAL",
    "Latitude": "8.6123",
    "Longitude": "76.9979",
    "AvailableFormats": "2D"
  },
  "PKKT": {
    "VenueCode": "PKKT",
    "VenueName": "PVR: Kripa, Thampanoor Trivandrum",
    "VenueAddress": "Over Bridge, Mahathma Gandhi Road, Chalai Bazaar, Thiruvananthapuram, Trivandrum, Kerala 695036, India",
    "City": "Trivandrum",
    "State": "Kerala",
    "RegionCode": "VKAL",
    "SubRegionCode": "VKAL",
    "Latitude": "8.48714",
    "Longitude": "76.9486",
    "AvailableFormats": "2D"
  },
  "HSTK": {
    "VenueCode": "HSTK",
    "VenueName": "Harisree Theatre 4K 3D Dolby 7.1: Kazhakkoottam",
    "VenueAddress": "Vettur Road, Kazhakootam, Trivandrum, Kerala 695301, India",
    "City": "Trivandrum",
    "State": "Kerala",
    "RegionCode": "VKAL",
    "SubRegionCode": "VKAL",
    "Latitude": "8.58223",
    "Longitude": "76.8612",
    "AvailableFormats": "2D"
  },
  "SPTT": {
    "VenueCode": "SPTT",
    "VenueName": "Sree Padmanabha Theatre 4K: East Fort",
    "VenueAddress": "Adjacent,East Fort, Chalai Bazaar Thiruvananthapuram, Near Gandhi Park, Trivandrum, Kerala 695036, India",
    "City": "Trivandrum",
    "State": "Kerala",
    "RegionCode": "VKAL",
    "SubRegionCode": "VKAL",
    "Latitude": "8.48227",
    "Longitude": "76.9485",
    "AvailableFormats": "2D"
  },
  "IMPM": {
    "VenueCode": "IMPM",
    "VenueName": "IMP Big Screen 2K 3D Dolby Atmos",
    "VenueAddress": "Pandathalamood, Aallumoodu, Kaliyikkavila, Trivandrum, Kerala 629194, India",
    "City": "Trivandrum",
    "State": "Kerala",
    "RegionCode": "VKAL",
    "SubRegionCode": "VKAL",
    "Latitude": "8.32379",
    "Longitude": "77.1803",
    "AvailableFormats": "2D"
  },
  "SCMV": {
    "VenueCode": "SCMV",
    "VenueName": "SR Cinema: Varkkala",
    "VenueAddress": "Sivagiri Road, Cherukunnam, Varkala, Near Indian Oil S.R Fuels, Trivandrum, Kerala 695141, India",
    "City": "Trivandrum",
    "State": "Kerala",
    "RegionCode": "VKAL",
    "SubRegionCode": "VKAL",
    "Latitude": "8.73324",
    "Longitude": "76.7294",
    "AvailableFormats": "2D"
  },
  "SPCT": {
    "VenueCode": "SPCT",
    "VenueName": "SP Cinemas 2K AURO 11.1: Peyad",
    "VenueAddress": "Peyad Junction, Thiruvananthapuram  Neyyar Dam Road, Trivandrum, Kerala 695573, India",
    "City": "Trivandrum",
    "State": "Kerala",
    "RegionCode": "VKAL",
    "SubRegionCode": "VKAL",
    "Latitude": "8.51385",
    "Longitude": "77.0194",
    "AvailableFormats": "2D"
  },
  "JBCA": {
    "VenueCode": "JBCA",
    "VenueName": "Thapasya Cine House: Attingal",
    "VenueAddress": "Alamcode, Near - Vazhiyorakkada Restaurant, Trivandrum, Kerala 695102, India",
    "City": "Trivandrum",
    "State": "Kerala",
    "RegionCode": "VKAL",
    "SubRegionCode": "VKAL",
    "Latitude": "8.71232",
    "Longitude": "76.813",
    "AvailableFormats": "2D"
  },
  "ATTR": {
    "VenueCode": "ATTR",
    "VenueName": "Ajanta Theatre 4K-Wide: Trivandrum",
    "VenueAddress": "Power House Road, East Fort, Near State Bank Of India, Trivandrum, Kerala 695036, India",
    "City": "Trivandrum",
    "State": "Kerala",
    "RegionCode": "VKAL",
    "SubRegionCode": "VKAL",
    "Latitude": "8.48544",
    "Longitude": "76.9485",
    "AvailableFormats": "2D"
  },
  "SPMT": {
    "VenueCode": "SPMT",
    "VenueName": "Sree Padmanabha Theatre (Screen 2): East Fort",
    "VenueAddress": "Adjacent,East Fort, Chalai Bazaar Thiruvananthapuram, Near Gandhi Park, Trivandrum, Kerala 695036, India",
    "City": "Trivandrum",
    "State": "Kerala",
    "RegionCode": "VKAL",
    "SubRegionCode": "VKAL",
    "Latitude": "8.48227",
    "Longitude": "76.9485",
    "AvailableFormats": "2D"
  },
  "LCTM": {
    "VenueCode": "LCTM",
    "VenueName": "Lenin Cinemas 4K 3D Dolby Atmos KSFDC: Trivandrum",
    "VenueAddress": "KSRTC Bus Terminal Complex, Thampanoor, Thiruvananthapuram, Near Ponnara Sreedhar Park, Trivandrum, Kerala 695014, India",
    "City": "Trivandrum",
    "State": "Kerala",
    "RegionCode": "VKAL",
    "SubRegionCode": "VKAL",
    "Latitude": "8.48838",
    "Longitude": "76.9519",
    "AvailableFormats": "2D"
  },
  "SCVL": {
    "VenueCode": "SCVL",
    "VenueName": "Star Cinema Dolby 7.1: Varkala",
    "VenueAddress": "State Highway 64, Kannamba Varkala, Near Railway Station, Trivandrum, Kerala 695141, India",
    "City": "Trivandrum",
    "State": "Kerala",
    "RegionCode": "VKAL",
    "SubRegionCode": "VKAL",
    "Latitude": "8.74355",
    "Longitude": "76.7215",
    "AvailableFormats": "2D"
  },
  "SCVT": {
    "VenueCode": "SCVT",
    "VenueName": "Sindhu Cinema: Venjaramoodu AC 2K, 3D Dolby 7.1",
    "VenueAddress": "State Highway 1, Venjaramoodu, Near Hindustan Petroleum, Trivandrum, Kerala 695607, India",
    "City": "Trivandrum",
    "State": "Kerala",
    "RegionCode": "VKAL",
    "SubRegionCode": "VKAL",
    "Latitude": "8.67362",
    "Longitude": "76.9116",
    "AvailableFormats": "2D"
  },
  "KRIC": {
    "VenueCode": "KRIC",
    "VenueName": "Sanskruti Krishna Multiplex: Songadh",
    "VenueAddress": "3rd and 4th Floor Krishna Mall, SBI Road, Navagam Fort Songadh Tapi, Near Vijaya Bank, Songadh, Gujarat 394670, India",
    "City": "Songadh",
    "State": "Gujarat",
    "RegionCode": "SONG",
    "SubRegionCode": "SONG",
    "Latitude": "21.1669",
    "Longitude": "73.5642",
    "AvailableFormats": "2D"
  },
  "CTMG": {
    "VenueCode": "CTMG",
    "VenueName": "Chhotu Maharaj CineCafe: Mundargi,Karnataka",
    "VenueAddress": "O Block No.27, No.22, Shrihatti Road, District Gadag, Mundargi, Karnataka 582118, India",
    "City": "Mundargi",
    "State": "Karnataka",
    "RegionCode": "MNDR",
    "SubRegionCode": "MNDR",
    "Latitude": "15.199",
    "Longitude": "75.8778",
    "AvailableFormats": "2D"
  },
  "ACNC": {
    "VenueCode": "ACNC",
    "VenueName": "Ashok CNC 4K Dolby Atmos Tripple Beam 3D: Vadakara",
    "VenueAddress": "Main Road Vadakara, Badagara, Vadakara, Near Taluk Office Vadakara, Vadakara, Kerala 673101, India",
    "City": "Vadakara",
    "State": "Kerala",
    "RegionCode": "VDKR",
    "SubRegionCode": "VDKR",
    "Latitude": "11.5998",
    "Longitude": "75.5859",
    "AvailableFormats": "2D"
  },
  "DMCK": {
    "VenueCode": "DMCK",
    "VenueName": "Dream Cinema: Kallachi",
    "VenueAddress": "Met Collage Road, Nadapuram, Kallachi, Kerala 673506, India",
    "City": "Kallachi",
    "State": "Kerala",
    "RegionCode": "VDKR",
    "SubRegionCode": "VDKR",
    "Latitude": "11.6868",
    "Longitude": "75.6656",
    "AvailableFormats": "2D"
  },
  "KMTV": {
    "VenueCode": "KMTV",
    "VenueName": "Kirthi Mudra 4K RGB Laser Dolby Atmos",
    "VenueAddress": "Edodi, Near ICICI Bank Vadakara, Vadakara, Kerala 673101, India",
    "City": "Vadakara",
    "State": "Kerala",
    "RegionCode": "VDKR",
    "SubRegionCode": "VDKR",
    "Latitude": "11.5927",
    "Longitude": "75.5903",
    "AvailableFormats": "2D"
  },
  "PFCJ": {
    "VenueCode": "PFCJ",
    "VenueName": "One2One Plus Film City 4K 3D Dolby Atmos: Vadakara",
    "VenueAddress": "Railway Station Road, Behind Old Bus Stand, Puthiyappu, Near Babus Hotel and Coolbar, Vadakara, Kerala 673101, India",
    "City": "Vadakara",
    "State": "Kerala",
    "RegionCode": "VDKR",
    "SubRegionCode": "VDKR",
    "Latitude": "11.5978",
    "Longitude": "75.5867",
    "AvailableFormats": "2D"
  },
  "VNMD": {
    "VenueCode": "VNMD",
    "VenueName": "Sri Venkateswara Theater A/C: Mummidivaram",
    "VenueAddress": "Kasi Vari Tumu, Mummadivaram Main Road, Mummidivaram, Andhra Pradesh 533216, India",
    "City": "Mummidivaram",
    "State": "Andhra Pradesh",
    "RegionCode": "MUMM",
    "SubRegionCode": "MUMM",
    "Latitude": "16.6481",
    "Longitude": "82.1088",
    "AvailableFormats": "2D"
  },
  "VPCZ": {
    "VenueCode": "VPCZ",
    "VenueName": "VPC Sri Krishna A/C: Mummidivaram",
    "VenueAddress": "J4V4, MF3, Near Rambala Complex, Mummidivaram, Andhra Pradesh 533216, India",
    "City": "Mummidivaram",
    "State": "Andhra Pradesh",
    "RegionCode": "MUMM",
    "SubRegionCode": "MUMM",
    "Latitude": "16.6441",
    "Longitude": "82.1062",
    "AvailableFormats": "2D"
  },
  "SRYR": {
    "VenueCode": "SRYR",
    "VenueName": "Surya Complex 2K Dolby Atmos: Rajahmundry",
    "VenueAddress": "Lakshmivarapu Pet, Seshayya Metta, Near Sub Collector`s Office, Behind Police Guest House, Rajahmundry, Andhra Pradesh 533103, India",
    "City": "Rajahmundry",
    "State": "Andhra Pradesh",
    "RegionCode": "KADY",
    "SubRegionCode": "KADY",
    "Latitude": "17.0078",
    "Longitude": "81.773",
    "AvailableFormats": "2D"
  },
  "SYTR": {
    "VenueCode": "SYTR",
    "VenueName": "Swamy Theatre LASER 4K DOLBY: Rajahmundry",
    "VenueAddress": "Annapurnamma peta, Near Rajahmundry Traffic Police Station, Rajahmundry, Andhra Pradesh 533101, India",
    "City": "Rajahmundry",
    "State": "Andhra Pradesh",
    "RegionCode": "KADY",
    "SubRegionCode": "KADY",
    "Latitude": "17.0052",
    "Longitude": "81.7785",
    "AvailableFormats": "2D"
  },
  "GATR": {
    "VenueCode": "GATR",
    "VenueName": "Apsara Laser R.G.B 4K Dolby Atmos: Rajahmundry",
    "VenueAddress": "Syamalamba Temple Road, Mangalavaripeta, Near Sri Vinayaka Temple, Rajahmundry, Andhra Pradesh 533101, India",
    "City": "Rajahmundry",
    "State": "Andhra Pradesh",
    "RegionCode": "RJMU",
    "SubRegionCode": "RJMU",
    "Latitude": "17.003",
    "Longitude": "81.775",
    "AvailableFormats": "2D"
  },
  "URTR": {
    "VenueCode": "URTR",
    "VenueName": "Urvasi Complex: Rajahmundry",
    "VenueAddress": "Urvasi Complex, Syamalamba Temple Road, Mangalavaripeta, Rajahmundry, Andhra Pradesh 533101, India",
    "City": "Rajahmundry",
    "State": "Andhra Pradesh",
    "RegionCode": "RJMU",
    "SubRegionCode": "RJMU",
    "Latitude": "17.0008",
    "Longitude": "81.7751",
    "AvailableFormats": "2D"
  },
  "MKSM": {
    "VenueCode": "MKSM",
    "VenueName": "Muralikrishna Cinema A/C 4K 3D: Dowlaiswaram",
    "VenueAddress": "SH 41, VGTPS Colony, Near Dowlaiswaram Bus Stand, Rajahmundry, Andhra Pradesh 533125, India",
    "City": "Rajahmundry",
    "State": "Andhra Pradesh",
    "RegionCode": "RJMU",
    "SubRegionCode": "RJMU",
    "Latitude": "16.9508",
    "Longitude": "81.7829",
    "AvailableFormats": "2D|3D"
  },
  "VSMH": {
    "VenueCode": "VSMH",
    "VenueName": "VS Mahal 4k Dolby Atmos 3D: Namavaram",
    "VenueAddress": "Satilite City Namavaram, A- Block, Namavaram - Moorapudi Road, Rajahmundry, Andhra Pradesh 533107, India",
    "City": "Rajahmundry",
    "State": "Andhra Pradesh",
    "RegionCode": "RJMU",
    "SubRegionCode": "RJMU",
    "Latitude": "16.9768",
    "Longitude": "81.8361",
    "AvailableFormats": "2D"
  },
  "SKRJ": {
    "VenueCode": "SKRJ",
    "VenueName": "Sri Sai Krishna 2K (Anusri Cinemas): Rajahmundry",
    "VenueAddress": "Syamalamba Temple Road, SH 41, Mangalavaripeta, Rajamahendravaram (Rajahmundry), Andhra Pradesh 533101, India",
    "City": "Rajamahendravaram (Rajahmundry)",
    "State": "Andhra Pradesh",
    "RegionCode": "RJMU",
    "SubRegionCode": "RJMU",
    "Latitude": "16.9971",
    "Longitude": "81.7752",
    "AvailableFormats": "2D"
  },
  "SSJR": {
    "VenueCode": "SSJR",
    "VenueName": "Sri Sivajyothi 2K Cinema 7.1 Dolby: Rajahmundry",
    "VenueAddress": "Seshayya Metta, Near Shreesaidarbaar Sai Temple, Rajahmundry, Andhra Pradesh 533101, India",
    "City": "Rajahmundry",
    "State": "Andhra Pradesh",
    "RegionCode": "KADY",
    "SubRegionCode": "KADY",
    "Latitude": "17.0102",
    "Longitude": "81.7715",
    "AvailableFormats": "2D"
  },
  "SVSM": {
    "VenueCode": "SVSM",
    "VenueName": "Sri Venkata Surya Picture Palace 2K: Kadiam",
    "VenueAddress": "Kadiyam, Kadiyam Mandal, Near Shirdi Sai Convent, Rajahmundry, Andhra Pradesh 533103, India",
    "City": "Rajahmundry",
    "State": "Andhra Pradesh",
    "RegionCode": "KADY",
    "SubRegionCode": "KADY",
    "Latitude": "16.917",
    "Longitude": "81.8054",
    "AvailableFormats": "2D"
  },
  "RUCM": {
    "VenueCode": "RUCM",
    "VenueName": "Fortune Four Cinemas A/C 2K 7.1: Rajanagaram",
    "VenueAddress": "Rajanagaram Main Road, Near Sai Baba Temple, Opposite TTD Kalyana Mandapam, Rajahmundry, Andhra Pradesh 533294, India",
    "City": "Rajahmundry",
    "State": "Andhra Pradesh",
    "RegionCode": "RJMU",
    "SubRegionCode": "RJMU",
    "Latitude": "17.074",
    "Longitude": "81.901",
    "AvailableFormats": "2D"
  },
  "PRKN": {
    "VenueCode": "PRKN",
    "VenueName": "Prakruthi Vedika Premium Cinema: Rajahmundry",
    "VenueAddress": "3R25+GC, Konthamuru, Rajamahendravaram (Rajahmundry), Andhra Pradesh 533101, India",
    "City": "Rajamahendravaram (Rajahmundry)",
    "State": "Andhra Pradesh",
    "RegionCode": "RJMU",
    "SubRegionCode": "RJMU",
    "Latitude": "17.0513",
    "Longitude": "81.8086",
    "AvailableFormats": "2D"
  },
  "RROH": {
    "VenueCode": "RROH",
    "VenueName": "Raja 4K Dolby Anusri Cinemas: Rajahmundry",
    "VenueAddress": "Korukonda Road, Beside Petrol Bunk, Vidya Nagar, Rajamahendravaram (Rajahmundry), Andhra Pradesh 533105, India",
    "City": "Rajamahendravaram (Rajahmundry)",
    "State": "Andhra Pradesh",
    "RegionCode": "RJMU",
    "SubRegionCode": "RJMU",
    "Latitude": "17.0262",
    "Longitude": "81.7844",
    "AvailableFormats": "2D"
  },
  "SCTN": {
    "VenueCode": "SCTN",
    "VenueName": "Suman Cineplex: Tembhurni",
    "VenueAddress": "At Post Tembhurni, Taluka Madha, District Solapur, Maharashtra State Highway 151, Tembhurni, Maharashtra 413211, India",
    "City": "Tembhurni",
    "State": "Maharashtra",
    "RegionCode": "TMBH",
    "SubRegionCode": "TMBH",
    "Latitude": "18.0324",
    "Longitude": "75.1878",
    "AvailableFormats": "2D"
  },
  "RTDM": {
    "VenueCode": "RTDM",
    "VenueName": "Ravi A/C 4K Laser Dolby Surround 7.1: Madanapalle",
    "VenueAddress": "Sri Ramulu Veedhi Sandhu, Rama Gopal Naidu Colony, Madanapalle, Andhra Pradesh 517325, India",
    "City": "Madanapalle",
    "State": "Andhra Pradesh",
    "RegionCode": "MDNP",
    "SubRegionCode": "MDNP",
    "Latitude": "13.5556",
    "Longitude": "78.5103",
    "AvailableFormats": "2D"
  },
  "ASRM": {
    "VenueCode": "ASRM",
    "VenueName": "ASR A/C 4K Laser Dolby Surround 7.1: Madanapalle",
    "VenueAddress": "Rama Gopal Naidu Colony, Near State Bank of India, Madanapalle, Andhra Pradesh 517325, India",
    "City": "Madanapalle",
    "State": "Andhra Pradesh",
    "RegionCode": "MDNP",
    "SubRegionCode": "MDNP",
    "Latitude": "13.5553",
    "Longitude": "78.5081",
    "AvailableFormats": "2D"
  },
  "SKMD": {
    "VenueCode": "SKMD",
    "VenueName": "Sri Krishna A/C 4K Dolby Atmos: Madanapalle",
    "VenueAddress": "B. K Palli, Patel Road, Near Indian Bank, Madanapalle, Andhra Pradesh 517325, India",
    "City": "Madanapalle",
    "State": "Andhra Pradesh",
    "RegionCode": "MDNP",
    "SubRegionCode": "MDNP",
    "Latitude": "13.5584",
    "Longitude": "78.5004",
    "AvailableFormats": "2D"
  },
  "SUTD": {
    "VenueCode": "SUTD",
    "VenueName": "Sunil A/C 4K Laser Dolby Surround 7.1: Madanapalle",
    "VenueAddress": "Sri Ramulu Veedhi Sandhu, Rama Gopal Naidu Colony, Madanapalle, Andhra Pradesh 517325, India",
    "City": "Madanapalle",
    "State": "Andhra Pradesh",
    "RegionCode": "MDNP",
    "SubRegionCode": "MDNP",
    "Latitude": "13.5556",
    "Longitude": "78.5103",
    "AvailableFormats": "2D"
  },
  "SADM": {
    "VenueCode": "SADM",
    "VenueName": "Siddartha 2K A/c Digital Surround:Madanapalle",
    "VenueAddress": "Krishna Nagar, Marpuri Steet Road, Madanapalle, Andhra Pradesh 517325, India",
    "City": "Madanapalle",
    "State": "Andhra Pradesh",
    "RegionCode": "MDNP",
    "SubRegionCode": "MDNP",
    "Latitude": "13.5586",
    "Longitude": "78.5006",
    "AvailableFormats": "2D"
  },
  "WCNR": {
    "VenueCode": "WCNR",
    "VenueName": "Welcome Cineplex: Makrana",
    "VenueAddress": "Borawar Makrana Road, Near Rajuji Sharma Hotel, Makrana, Rajasthan 341502, India",
    "City": "Makrana",
    "State": "Rajasthan",
    "RegionCode": "MAKA",
    "SubRegionCode": "MAKA",
    "Latitude": "27.038",
    "Longitude": "74.7113",
    "AvailableFormats": "2D"
  },
  "CNED": {
    "VenueCode": "CNED",
    "VenueName": "Cinepolis: Nexus Esplanade, Bhubaneswar",
    "VenueAddress": "Esplanade One, Rasulgarh Industrial Estate, Industrial Area Estate, Rasulgarh, Bhubaneswar, Odisha 751007, India",
    "City": "Bhubaneswar",
    "State": "Odisha",
    "RegionCode": "JATN",
    "SubRegionCode": "JATN",
    "Latitude": "20.2912",
    "Longitude": "85.8558",
    "AvailableFormats": "2D|3D"
  },
  "MPDB": {
    "VenueCode": "MPDB",
    "VenueName": "Maharaja (Christie 4K, DOLBY ATMOS 64 CHANNEL)",
    "VenueAddress": "Bhoi Nagar, Service Road, Vani Vihar, Near Sky Automobile, Bhubaneswar, Odisha 751022, India",
    "City": "Bhubaneswar",
    "State": "Odisha",
    "RegionCode": "JATN",
    "SubRegionCode": "JATN",
    "Latitude": "20.2962",
    "Longitude": "85.835",
    "AvailableFormats": "3D|2D"
  },
  "KTBH": {
    "VenueCode": "KTBH",
    "VenueName": "Keshari Talkies (BARCO 4K LASER DOLBY ATMOS)",
    "VenueAddress": "98, Unit-3, Sachivalaya Marg, OPTCL Colony, Anand Bazar, Kharbela Nagar, Bhubaneshwar, Odisha 751001, India",
    "City": "Bhubaneshwar",
    "State": "Odisha",
    "RegionCode": "JATN",
    "SubRegionCode": "JATN",
    "Latitude": "20.2752",
    "Longitude": "85.8349",
    "AvailableFormats": "2D"
  },
  "IDRM": {
    "VenueCode": "IDRM",
    "VenueName": "INOX: DN Regalia Mall",
    "VenueAddress": "2nd Floor, DN Regalia Mall, IDCO Plot No 1/A, Bhagabanpur Industrial Estate, Patrapada, Bhubaneswar, Odisha 751019, India",
    "City": "Bhubaneswar",
    "State": "Odisha",
    "RegionCode": "JATN",
    "SubRegionCode": "JATN",
    "Latitude": "20.241",
    "Longitude": "85.7585",
    "AvailableFormats": "2D|3D"
  },
  "PJJT": {
    "VenueCode": "PJJT",
    "VenueName": "PJ Movies (Veena Theatre): Jatni",
    "VenueAddress": "Sardar Patel Marg, Jatni, Jatni, Odisha 752050, India",
    "City": "Jatni",
    "State": "Odisha",
    "RegionCode": "JATN",
    "SubRegionCode": "JATN",
    "Latitude": "20.1615",
    "Longitude": "85.7054",
    "AvailableFormats": "2D"
  },
  "PFCV": {
    "VenueCode": "PFCV",
    "VenueName": "Naxa Popular Film City 4K 3D Dolby Atmos",
    "VenueAddress": "State Highway 73, Karekkad, Valanchery, Kerala 676552, India",
    "City": "Valanchery",
    "State": "Kerala",
    "RegionCode": "KOKK",
    "SubRegionCode": "KOKK",
    "Latitude": "10.8973",
    "Longitude": "76.0756",
    "AvailableFormats": "2D"
  },
  "AACT": {
    "VenueCode": "AACT",
    "VenueName": "Magic Frames Anoograha Cinemas: Tirur",
    "VenueAddress": "Trikkandiyoor Road, Tirur, Near MDC BANK, Tirur, Kerala 676101, India",
    "City": "Tirur",
    "State": "Kerala",
    "RegionCode": "TRUR",
    "SubRegionCode": "TRUR",
    "Latitude": "10.9094",
    "Longitude": "75.9226",
    "AvailableFormats": "2D"
  },
  "AAAD": {
    "VenueCode": "AAAD",
    "VenueName": "Khinvasara Cineplex: Chhatrapati SambhajiNagar",
    "VenueAddress": "Opposite Zilla Parishad, Amba - Apsara Cinema Road, Aurangpura, Chhatrapati Sambhaji Nagar, Chhatrapati Sambhajinagar (Aurangabad), Maharashtra 431001, India",
    "City": "Chhatrapati Sambhajinagar (Aurangabad)",
    "State": "Maharashtra",
    "RegionCode": "AURA",
    "SubRegionCode": "AURA",
    "Latitude": "19.8849",
    "Longitude": "75.3253",
    "AvailableFormats": "2D|3D"
  },
  "ANES": {
    "VenueCode": "ANES",
    "VenueName": "Abhinay: Chhatrapati Sambhaji Nagar",
    "VenueAddress": "Near Central Telegraph Office, Bahadurpura Mondha Road, Aurangabad HO, Near Jafar Gate, Chhatrapati Sambhaji Nagar, Near Jaffer Gate, Chhatrapati Sambhajinagar (Aurangabad), Maharashtra 431001, India",
    "City": "Chhatrapati Sambhajinagar (Aurangabad)",
    "State": "Maharashtra",
    "RegionCode": "AURA",
    "SubRegionCode": "AURA",
    "Latitude": "19.879",
    "Longitude": "75.3355",
    "AvailableFormats": "3D|2D"
  },
  "MNCA": {
    "VenueCode": "MNCA",
    "VenueName": "MohanNova Cinemaz: Chhatrapati SambhajiNagar",
    "VenueAddress": "Sarafa Road, Sarafa Bazar, Shahgunj, Chhatrapati Sambhaji Nagar, Chhatrapati Sambhajinagar (Aurangabad), Maharashtra 431001, India",
    "City": "Chhatrapati Sambhajinagar (Aurangabad)",
    "State": "Maharashtra",
    "RegionCode": "AURA",
    "SubRegionCode": "AURA",
    "Latitude": "19.8883",
    "Longitude": "75.3334",
    "AvailableFormats": "2D"
  },
  "RMGU": {
    "VenueCode": "RMGU",
    "VenueName": "Rama Krishna Theater: Gudlavalleru",
    "VenueAddress": "Santha Road, Gudlavalleru, Gudlavalleru, Andhra Pradesh 521356, India",
    "City": "Gudlavalleru",
    "State": "Andhra Pradesh",
    "RegionCode": "GULU",
    "SubRegionCode": "GULU",
    "Latitude": "16.3486",
    "Longitude": "81.0547",
    "AvailableFormats": "2D"
  },
  "DLCN": {
    "VenueCode": "DLCN",
    "VenueName": "Dhanalakshmi Cinemas: Nenmara",
    "VenueAddress": "State Highway 58, MG Road, Nenmara, Kerala 678508, India",
    "City": "Nenmara",
    "State": "Kerala",
    "RegionCode": "NENM",
    "SubRegionCode": "NENM",
    "Latitude": "10.5908",
    "Longitude": "76.5954",
    "AvailableFormats": "2D"
  },
  "LJWT": {
    "VenueCode": "LJWT",
    "VenueName": "Arjun Cineplex: Ramgarhwa",
    "VenueAddress": "Ground Floor, East Champaran, Ramgarhwa, Bihar 845433, India",
    "City": "Ramgarhwa",
    "State": "Bihar",
    "RegionCode": "RGHA",
    "SubRegionCode": "RGHA",
    "Latitude": "26.8775",
    "Longitude": "84.7875",
    "AvailableFormats": "2D"
  },
  "MCBG": {
    "VenueCode": "MCBG",
    "VenueName": "Miraj Cinemas: Balaghat",
    "VenueAddress": "Kalptaru Mall, Chitragupt Nagar, Near Mahavir Chowk, Balaghat, Madhya Pradesh 481001, India",
    "City": "Balaghat",
    "State": "Madhya Pradesh",
    "RegionCode": "BLGT",
    "SubRegionCode": "BLGT",
    "Latitude": "21.8173",
    "Longitude": "80.1916",
    "AvailableFormats": "2D|3D"
  },
  "MYBG": {
    "VenueCode": "MYBG",
    "VenueName": "Mayur Talkies: Balaghat",
    "VenueAddress": "Chitragupt Nagar, Gondia Road, Near HDFC Bank, Balaghat, Madhya Pradesh 481001, India",
    "City": "Balaghat",
    "State": "Madhya Pradesh",
    "RegionCode": "BLGT",
    "SubRegionCode": "BLGT",
    "Latitude": "21.8109",
    "Longitude": "80.1954",
    "AvailableFormats": "2D"
  },
  "GCCA": {
    "VenueCode": "GCCA",
    "VenueName": "Gold Cinema: City Mall, Gondia",
    "VenueAddress": "City Mall, Opposite - Circus Ground, Ganesh Nagar, Main Road, Gondia, Maharashtra 441601, India",
    "City": "Gondia",
    "State": "Maharashtra",
    "RegionCode": "GNDA",
    "SubRegionCode": "GNDA",
    "Latitude": "21.4531",
    "Longitude": "80.1912",
    "AvailableFormats": "2D|3D"
  },
  "GCGA": {
    "VenueCode": "GCGA",
    "VenueName": "Gold Cinema, Govindpur Road: Gondia",
    "VenueAddress": "P. A. Mills Compound, Govindpur Road, Bajaj Nagar, Gondia, Maharashtra 441601, India",
    "City": "Gondia",
    "State": "Maharashtra",
    "RegionCode": "AMGN",
    "SubRegionCode": "AMGN",
    "Latitude": "21.4534",
    "Longitude": "80.2038",
    "AvailableFormats": "3D|2D"
  },
  "ECGN": {
    "VenueCode": "ECGN",
    "VenueName": "EOS Cinemas: Gondia",
    "VenueAddress": "2nd Floor, Platinum Plaza, Ward No 9, Lohiya Ward, Pal Chowk, Rail Toly, Bhandarkar Road, Near State Bank of India, Gondia, Maharashtra 441614, India",
    "City": "Gondia",
    "State": "Maharashtra",
    "RegionCode": "AMGN",
    "SubRegionCode": "AMGN",
    "Latitude": "21.4655",
    "Longitude": "80.1894",
    "AvailableFormats": "2D"
  },
  "PRAB": {
    "VenueCode": "PRAB",
    "VenueName": "Prabhat Cinema: Gondia",
    "VenueAddress": "Vithal Nagar, Bajaj Nagar, Sales Tax Office Road, Gondia, Maharashtra 441601, India",
    "City": "Gondia",
    "State": "Maharashtra",
    "RegionCode": "GNDA",
    "SubRegionCode": "GNDA",
    "Latitude": "21.4556",
    "Longitude": "80.1953",
    "AvailableFormats": "2D"
  },
  "PNMP": {
    "VenueCode": "PNMP",
    "VenueName": "PVR: Novelty Mall, Pathankot",
    "VenueAddress": "Dalhousie Road, Mamun, Pathankot, Punjab 145001, India",
    "City": "Pathankot",
    "State": "Punjab",
    "RegionCode": "PATH",
    "SubRegionCode": "PATH",
    "Latitude": "32.2753",
    "Longitude": "75.6973",
    "AvailableFormats": "2D"
  },
  "GCPT": {
    "VenueCode": "GCPT",
    "VenueName": "Grand Cinemaz: Pathankot",
    "VenueAddress": "4th Floor, City Centre Mall, Dalhousie Road, Pathankot, Punjab 145001, India",
    "City": "Pathankot",
    "State": "Punjab",
    "RegionCode": "PATH",
    "SubRegionCode": "PATH",
    "Latitude": "32.2726",
    "Longitude": "75.6535",
    "AvailableFormats": "2D"
  },
  "ROYN": {
    "VenueCode": "ROYN",
    "VenueName": "Royal Cinemas: Balangir",
    "VenueAddress": "Rugudipada, Old Palace, Next to Hotel Bhagwati, Near Jalaram Temple, Balangir, Odisha 767001, India",
    "City": "Balangir",
    "State": "Odisha",
    "RegionCode": "BALG",
    "SubRegionCode": "BALG",
    "Latitude": "20.7034",
    "Longitude": "83.4876",
    "AvailableFormats": "2D"
  },
  "VATM": {
    "VenueCode": "VATM",
    "VenueName": "Veena Varna Theatre: Mananthavady A/C 2K 3D",
    "VenueAddress": "Valliyoorkavu Temple Road, Mananthavady, Near St.Josephs Mission Hospital, Mananthavady, Kerala 670645, India",
    "City": "Mananthavady",
    "State": "Kerala",
    "RegionCode": "MAVY",
    "SubRegionCode": "MAVY",
    "Latitude": "11.8022",
    "Longitude": "76.008",
    "AvailableFormats": "2D"
  },
  "KSNT": {
    "VenueCode": "KSNT",
    "VenueName": "Kairali Sree Nila RGB Laser 4K Dolby Atmos",
    "VenueAddress": "Aristo Junction, Thampanoor, Near Hotel Galaxy Park, Trivandrum, Kerala 695014, India",
    "City": "Trivandrum",
    "State": "Kerala",
    "RegionCode": "TRIV",
    "SubRegionCode": "TRIV",
    "Latitude": "8.48888",
    "Longitude": "76.9532",
    "AvailableFormats": "2D"
  },
  "ACTC": {
    "VenueCode": "ACTC",
    "VenueName": "Artech Cinemas: Trivandrum",
    "VenueAddress": "SRA-24, Vanchiyoor, Thiruvananthapuram, Trivandrum, Kerala 695035, India",
    "City": "Trivandrum",
    "State": "Kerala",
    "RegionCode": "TRIV",
    "SubRegionCode": "TRIV",
    "Latitude": "8.49706",
    "Longitude": "76.9371",
    "AvailableFormats": "2D"
  },
  "PLTD": {
    "VenueCode": "PLTD",
    "VenueName": "PVR: Lulu, Trivandrum",
    "VenueAddress": "91/270 Akkulam Bridge, Anayara Post, Near Jos Alukkas, Trivandrum, Kerala 695029, India",
    "City": "Trivandrum",
    "State": "Kerala",
    "RegionCode": "TRIV",
    "SubRegionCode": "TRIV",
    "Latitude": "8.51536",
    "Longitude": "76.8977",
    "AvailableFormats": "4DX|3D|2D|IMAX 2D|4DX 3D"
  },
  "SKMK": {
    "VenueCode": "SKMK",
    "VenueName": "Sri Kalidas M Plex 4K RGB Laser Atmos: Kattakkada",
    "VenueAddress": "F3RG+2H6, Thoongampara, Kattakkada, Maranalloor, Trivandrum, Kerala 695572, India",
    "City": "Trivandrum",
    "State": "Kerala",
    "RegionCode": "TRIV",
    "SubRegionCode": "TRIV",
    "Latitude": "8.49002",
    "Longitude": "77.0764",
    "AvailableFormats": "2D"
  },
  "CMTT": {
    "VenueCode": "CMTT",
    "VenueName": "Cinepolis: MOT, Trivandrum",
    "VenueAddress": "2nd floor, Mall of Travancore, International Airport Road, Next to Ananthapuri Hospital, Eanchakkal, Trivandrum, Kerala 695024, India",
    "City": "Trivandrum",
    "State": "Kerala",
    "RegionCode": "TRIV",
    "SubRegionCode": "TRIV",
    "Latitude": "8.48693",
    "Longitude": "76.9263",
    "AvailableFormats": "2D"
  },