{
  "MCCZ": {
    "VenueCode": "MCCZ",
    "VenueName": "Mohan Cinemark: Ambajogai",
    "VenueAddress": "Prashant Nagar, Dr. B.R Ambedkar Road, Ambajogai, Maharashtra 431517, India",
    "City": "Ambajogai",
    "State": "Maharashtra",
    "RegionCode": "AMBG",
    "SubRegionCode": "AMBG",
    "Latitude": "18.7313",
    "Longitude": "76.391",
    "AvailableFormats": "2D"
  },
  "FRPU": {
    "VenueCode": "FRPU",
    "VenueName": "Om Jee Cinemas: Patran",
    "VenueAddress": "Narwana Bye Pass Road, Patiala, Patran, Punjab 147105, India",
    "City": "Patran",
    "State": "Punjab",
    "RegionCode": "PATR",
    "SubRegionCode": "PATR",
    "Latitude": "29.9458",
    "Longitude": "76.0642",
    "AvailableFormats": "2D"
  },
  "SKSI": {
    "VenueCode": "SKSI",
    "VenueName": "SR Cinemas: Kashti",
    "VenueAddress": "Ahmed Nagar, Daund Road, Kashti, Maharashtra 414701, India",
    "City": "Kashti",
    "State": "Maharashtra",
    "RegionCode": "KAST",
    "SubRegionCode": "KAST",
    "Latitude": "18.5461",
    "Longitude": "74.5826",
    "AvailableFormats": "2D"
  },
  "SSCK": {
    "VenueCode": "SSCK",
    "VenueName": "Sree Sailam Cine House 4K: Kadakkal",
    "VenueAddress": "Sree Sailom Cine House, Nilamel - Madathara Road, Kadakkal, Kerala 691536, India",
    "City": "Kadakkal",
    "State": "Kerala",
    "RegionCode": "KDKL",
    "SubRegionCode": "KDKL",
    "Latitude": "8.82757",
    "Longitude": "76.9097",
    "AvailableFormats": "2D"
  },
  "SRDC": {
    "VenueCode": "SRDC",
    "VenueName": "SreeDhanya Cinemax",
    "VenueAddress": "Paripally Madathara Rd, Kanjirathummoodu,Kerala, Near Nithyasree Auditorium, Kadakkal, Kerala 691559, India",
    "City": "Kadakkal",
    "State": "Kerala",
    "RegionCode": "KDKL",
    "SubRegionCode": "KDKL",
    "Latitude": "8.82405",
    "Longitude": "76.9511",
    "AvailableFormats": "2D"
  },
  "RSCZ": {
    "VenueCode": "RSCZ",
    "VenueName": "Rajshree Starworld Cinema: Mirzapur",
    "VenueAddress": "G.D.Binani P.G. College Mirzapur, Tehsil Road, Shuklaha Chowk, Varanasi Road, Cheruiram, Near Hanuman Mandir, Mirzapur, Uttar Pradesh 231307, India",
    "City": "Mirzapur",
    "State": "Uttar Pradesh",
    "RegionCode": "MIZP",
    "SubRegionCode": "MIZP",
    "Latitude": "25.1419",
    "Longitude": "82.5817",
    "AvailableFormats": "2D"
  },
  "PRVT": {
    "VenueCode": "PRVT",
    "VenueName": "Parvathi Talkies A/C: Bhattiprolu",
    "VenueAddress": "Temple Road, Near Ramaguptha Kalyana Mandapam, Bhattiprolu, Andhra Pradesh 522256, India",
    "City": "Bhattiprolu",
    "State": "Andhra Pradesh",
    "RegionCode": "BATT",
    "SubRegionCode": "BATT",
    "Latitude": "16.1016",
    "Longitude": "80.7836",
    "AvailableFormats": "2D"
  },
  "GAGJ": {
    "VenueCode": "GAGJ",
    "VenueName": "Gangaraju Kalamandhir Dolby7.1: Gajapathinagaram",
    "VenueAddress": "Jayanthi Colony, Near Canara Bank, Gajapathinagaram, Andhra Pradesh 535270, India",
    "City": "Gajapathinagaram",
    "State": "Andhra Pradesh",
    "RegionCode": "GJPT",
    "SubRegionCode": "GJPT",
    "Latitude": "18.284",
    "Longitude": "83.337",
    "AvailableFormats": "2D"
  },
  "SMHG": {
    "VenueCode": "SMHG",
    "VenueName": "Surya Mahal: Gajapathinagaram",
    "VenueAddress": "Jeypore - Vizianagaram Road, Near Gajapathinagaram Bridge, Gajapathinagaram, Andhra Pradesh 535270, India",
    "City": "Gajapathinagaram",
    "State": "Andhra Pradesh",
    "RegionCode": "GJPT",
    "SubRegionCode": "GJPT",
    "Latitude": "18.2758",
    "Longitude": "83.3374",
    "AvailableFormats": "2D"
  },
  "JTST": {
    "VenueCode": "JTST",
    "VenueName": "Srinivas Theatre: Kovur",
    "VenueAddress": "Chinnapadugupadu, Srinivasa Theatre Road, Near State Bank ATM, Kovur (Nellore), Andhra Pradesh 524137, India",
    "City": "Kovur (Nellore)",
    "State": "Andhra Pradesh",
    "RegionCode": "KOVR",
    "SubRegionCode": "KOVR",
    "Latitude": "14.5019",
    "Longitude": "79.986",
    "AvailableFormats": "2D"
  },
  "MYTH": {
    "VenueCode": "MYTH",
    "VenueName": "Mythili Theatre: Kovur",
    "VenueAddress": "Mythili Imax Cinemas Road, Near ICICI Bank ATM, Kovur (Nellore), Andhra Pradesh 524137, India",
    "City": "Kovur (Nellore)",
    "State": "Andhra Pradesh",
    "RegionCode": "KOVR",
    "SubRegionCode": "KOVR",
    "Latitude": "14.505",
    "Longitude": "79.9859",
    "AvailableFormats": "2D"
  },
  "JPCC": {
    "VenueCode": "JPCC",
    "VenueName": "JP Cinemas: Chhatarpur",
    "VenueAddress": "JP Paradise, Peptech Town, Nowgong Road, National Highway 39, Chhatarpur, Madhya Pradesh 471001, India",
    "City": "Chhatarpur",
    "State": "Madhya Pradesh",
    "RegionCode": "CHHT",
    "SubRegionCode": "CHHT",
    "Latitude": "24.9439",
    "Longitude": "79.564",
    "AvailableFormats": "2D"
  },
  "ACDC": {
    "VenueCode": "ACDC",
    "VenueName": "Ashoka Cineplex: Chhatarpur",
    "VenueAddress": "Green Avenue Colony, Next to Dr. Radhakrishna Higher Secondary School, Chhatarpur, Madhya Pradesh 471001, India",
    "City": "Chhatarpur",
    "State": "Madhya Pradesh",
    "RegionCode": "CHHT",
    "SubRegionCode": "CHHT",
    "Latitude": "24.8849",
    "Longitude": "79.5946",
    "AvailableFormats": "2D"
  },
  "SVFP": {
    "VenueCode": "SVFP",
    "VenueName": "SVF Cinemas: PRM Centre Point, Malda",
    "VenueAddress": "Badshahi Road, Jadupur, Malda, West Bengal 732101, India",
    "City": "Malda",
    "State": "West Bengal",
    "RegionCode": "MALD",
    "SubRegionCode": "MALD",
    "Latitude": "24.9777",
    "Longitude": "88.1317",
    "AvailableFormats": "2D|3D"
  },
  "SFCM": {
    "VenueCode": "SFCM",
    "VenueName": "SVF Cinemas: Malda",
    "VenueAddress": "DD Behani Complex, 4th Floor, 26,27 Rabindra Avenue, Malda, West Bengal 732101, India",
    "City": "Malda",
    "State": "West Bengal",
    "RegionCode": "MALD",
    "SubRegionCode": "MALD",
    "Latitude": "25.0012",
    "Longitude": "88.1392",
    "AvailableFormats": "3D|2D"
  },
  "RUPK": {
    "VenueCode": "RUPK",
    "VenueName": "Rupkatha Cinema Dolby Digital: Malda",
    "VenueAddress": "Gangabag, Netaji Subhash Road, Malda, West Bengal 732101, India",
    "City": "Malda",
    "State": "West Bengal",
    "RegionCode": "MALD",
    "SubRegionCode": "MALD",
    "Latitude": "25.0045",
    "Longitude": "88.1483",
    "AvailableFormats": "2D"
  },
  "NTCR": {
    "VenueCode": "NTCR",
    "VenueName": "Nataraj Cinema: Malda",
    "VenueAddress": "Mangal Bari, Vivekananda Ave Road, Malda, West Bengal 732142, India",
    "City": "Malda",
    "State": "West Bengal",
    "RegionCode": "MALD",
    "SubRegionCode": "MALD",
    "Latitude": "25.0147",
    "Longitude": "88.1494",
    "AvailableFormats": "2D"
  },
  "RTCH": {
    "VenueCode": "RTCH",
    "VenueName": "Sri Ratna Theatre Complex: Chintalapudi",
    "VenueAddress": "Sitanagaram Road, Coastal Andhra Region, Chintalapudi, Andhra Pradesh 534460, India",
    "City": "Chintalapudi",
    "State": "Andhra Pradesh",
    "RegionCode": "CHPD",
    "SubRegionCode": "CHPD",
    "Latitude": "17.0723",
    "Longitude": "80.9844",
    "AvailableFormats": "2D"
  },
  "SCMH": {
    "VenueCode": "SCMH",
    "VenueName": "S3 Cineplex: Manendragarh",
    "VenueAddress": "Moharpara, Civil Lines Road, Near Tehsil Office, Manendragarh, Chhattisgarh 497442, India",
    "City": "Manendragarh",
    "State": "Chhattisgarh",
    "RegionCode": "MANE",
    "SubRegionCode": "MANE",
    "Latitude": "23.2148",
    "Longitude": "82.2067",
    "AvailableFormats": "2D"
  },
  "SVYM": {
    "VenueCode": "SVYM",
    "VenueName": "Shiva Cinemas: Yemmiganur",
    "VenueAddress": "Timmappa Colony, Billekal - Yemmiganur Road, Near Geetha Children Hospital, Yemmiganur, Andhra Pradesh 518360, India",
    "City": "Yemmiganur",
    "State": "Andhra Pradesh",
    "RegionCode": "YEMM",
    "SubRegionCode": "YEMM",
    "Latitude": "15.762",
    "Longitude": "77.4797",
    "AvailableFormats": "2D"
  },
  "SPYM": {
    "VenueCode": "SPYM",
    "VenueName": "Siva Priya Cinema: Yemmiganur",
    "VenueAddress": "Timmappa Colony, Timmappa Colony, Near Geetha Children Hospital, Yemmiganur, Andhra Pradesh 518360, India",
    "City": "Yemmiganur",
    "State": "Andhra Pradesh",
    "RegionCode": "YEMM",
    "SubRegionCode": "YEMM",
    "Latitude": "15.762",
    "Longitude": "77.4797",
    "AvailableFormats": "2D"
  },
  "SMMF": {
    "VenueCode": "SMMF",
    "VenueName": "Mini Srinivasa Theater: Yemmiganur",
    "VenueAddress": "1/1161, First Floor, Geethanagar, Yemmiganur, Andhra Pradesh 518360, India",
    "City": "Yemmiganur",
    "State": "Andhra Pradesh",
    "RegionCode": "YEMM",
    "SubRegionCode": "YEMM",
    "Latitude": "15.7725",
    "Longitude": "77.4792",
    "AvailableFormats": "2D"
  },
  "CLLB": {
    "VenueCode": "CLLB",
    "VenueName": "Connplex Cinemas (Luxuriance): Bhagalpur",
    "VenueAddress": "4th floor, H L Tower, DN Singh Road, Near Hari Om Laxmi Narayan Jewellers, Kharmanchak, PS, Jogsar, Adampur, Bhagalpur, Bihar 812002, India",
    "City": "Bhagalpur",
    "State": "Bihar",
    "RegionCode": "BHAG",
    "SubRegionCode": "BHAG",
    "Latitude": "25.2483",
    "Longitude": "86.9764",
    "AvailableFormats": "2D"
  },
  "FMCB": {
    "VenueCode": "FMCB",
    "VenueName": "FM Cineplex: Bhagalpur",
    "VenueAddress": "Near DAV School, Large Industrial Area, Barari, Bhagalpur, Bihar 812003, India",
    "City": "Bhagalpur",
    "State": "Bihar",
    "RegionCode": "BHAG",
    "SubRegionCode": "BHAG",
    "Latitude": "25.2632",
    "Longitude": "87.0324",
    "AvailableFormats": "2D|3D"
  },
  "BBTC": {
    "VenueCode": "BBTC",
    "VenueName": "Sri Balaji Talkies: Channapatna",
    "VenueAddress": "16th Cross, Mangalavara Pete Road, Near Big Bazar, Channapatna, Karnataka 562160, India",
    "City": "Channapatna",
    "State": "Karnataka",
    "RegionCode": "CPTN",
    "SubRegionCode": "CPTN",
    "Latitude": "12.6456",
    "Longitude": "77.1945",
    "AvailableFormats": "2D"
  },
  "NTHS": {
    "VenueCode": "NTHS",
    "VenueName": "Nataraj Talkies: Sirsi, Karnataka",
    "VenueAddress": "SH 93, CP Bazar, Sirsi, Karnataka 581401, India",
    "City": "Sirsi",
    "State": "Karnataka",
    "RegionCode": "SRSI",
    "SubRegionCode": "SRSI",
    "Latitude": "14.6172",
    "Longitude": "74.8333",
    "AvailableFormats": "2D"
  },
  "PKKJ": {
    "VenueCode": "PKKJ",
    "VenueName": "PVR: KC Jammu",
    "VenueAddress": "B.C Road, Bakshi Nagar Flyover Jammu, Jammu, Jammu and Kashmir 180001, India",
    "City": "Jammu",
    "State": "Jammu and Kashmir",
    "RegionCode": "JAMM",
    "SubRegionCode": "JAMM",
    "Latitude": "32.7341",
    "Longitude": "74.858",
    "AvailableFormats": "2D|3D"
  },
  "MTJA": {
    "VenueCode": "MTJA",
    "VenueName": "Movietime Cinemas: Jammu",
    "VenueAddress": "K C Central, Indira Theater, Canal Road, Jammu Tawi, Near The Raymond Shop, Jammu, Jammu and Kashmir 180002, India",
    "City": "Jammu",
    "State": "Jammu and Kashmir",
    "RegionCode": "JAMM",
    "SubRegionCode": "JAMM",
    "Latitude": "32.7274",
    "Longitude": "74.8458",
    "AvailableFormats": "2D"
  },
  "PMSJ": {
    "VenueCode": "PMSJ",
    "VenueName": "Platinum Movietime SPA: Palm Island Mall, Jammu",
    "VenueAddress": "3rd Floor, Palm Island Mall, Canal Road, Jammu, Jammu and Kashmir 180016, India",
    "City": "Jammu",
    "State": "Jammu and Kashmir",
    "RegionCode": "JAMM",
    "SubRegionCode": "JAMM",
    "Latitude": "32.7288",
    "Longitude": "74.8471",
    "AvailableFormats": "2D"
  },
  "JMJU": {
    "VenueCode": "JMJU",
    "VenueName": "Apsra Hospitality & Entertainment(Apsra Multiplex)",
    "VenueAddress": "Gandhi Nagar, Apsara Road, Jammu, Jammu and Kashmir 180004, India",
    "City": "Jammu",
    "State": "Jammu and Kashmir",
    "RegionCode": "JAMM",
    "SubRegionCode": "JAMM",
    "Latitude": "32.6993",
    "Longitude": "74.8583",
    "AvailableFormats": "2D"
  },
  "SRAD": {
    "VenueCode": "SRAD",
    "VenueName": "Sri Devi Mahal: Amadalavalasa",
    "VenueAddress": "Kotturu-Srikakulam Road, Near By Sri Vasavi Kanyaka Parmeshwari Temple, Amadalavalasa, Andhra Pradesh 532185, India",
    "City": "Amadalavalasa",
    "State": "Andhra Pradesh",
    "RegionCode": "ADAM",
    "SubRegionCode": "ADAM",
    "Latitude": "18.4127",
    "Longitude": "83.9072",
    "AvailableFormats": "2D"
  },
  "MJMC": {
    "VenueCode": "MJMC",
    "VenueName": "Mahabir Jain Municipalty Cultural: Jiaganj",
    "VenueAddress": "Old Laxmi Talkies, Chudipatti Road, Jiaganj, West Bengal 742123, India",
    "City": "Jiaganj",
    "State": "West Bengal",
    "RegionCode": "JAGJ",
    "SubRegionCode": "JAGJ",
    "Latitude": "24.2375",
    "Longitude": "88.2642",
    "AvailableFormats": "2D"
  },
  "DFRM": {
    "VenueCode": "DFRM",
    "VenueName": "DFine Cinemas: Ramnagar",
    "VenueAddress": "Radheysham Arcade, Lakhanpur, Tera Road, Ramnagar, Uttarakhand 244715, India",
    "City": "Ramnagar",
    "State": "Uttarakhand",
    "RegionCode": "RAMN",
    "SubRegionCode": "RAMN",
    "Latitude": "29.4007",
    "Longitude": "79.1271",
    "AvailableFormats": "2D"
  },
  "PMRS": {
    "VenueCode": "PMRS",
    "VenueName": "PM Cinema (Riddhima-2): Sagwara",
    "VenueAddress": "Surbhi Shopping Mall, Krishna Nagar, Sagwara, Rajasthan 314025, India",
    "City": "Sagwara",
    "State": "Rajasthan",
    "RegionCode": "SAGA",
    "SubRegionCode": "SAGA",
    "Latitude": "23.6672",
    "Longitude": "74.0265",
    "AvailableFormats": "2D"
  },
  "RKPP": {
    "VenueCode": "RKPP",
    "VenueName": "Ramakrishna Picture Palace: Siruguppa",
    "VenueAddress": "Behind Haripriya Supermarket, Near Bannimahankaali Temple, Siruguppa, Karnataka 583121, India",
    "City": "Siruguppa",
    "State": "Karnataka",
    "RegionCode": "SPPA",
    "SubRegionCode": "SPPA",
    "Latitude": "15.6328",
    "Longitude": "76.8917",
    "AvailableFormats": "2D"
  },
  "BMBK": {
    "VenueCode": "BMBK",
    "VenueName": "Bhagirathi Multiplex: Bhawanipatna",
    "VenueAddress": "Bhagirathi Mall, Sambhunagar Pada, Bhawanipatna, Odisha 766002, India",
    "City": "Bhawanipatna",
    "State": "Odisha",
    "RegionCode": "BHAW",
    "SubRegionCode": "BHAW",
    "Latitude": "19.9065",
    "Longitude": "83.1421",
    "AvailableFormats": "2D"
  },
  "NEWS": {
    "VenueCode": "NEWS",
    "VenueName": "New Star Cineplex: Bhawanipatna",
    "VenueAddress": "Bhawanipatna - Raipur Highway, Parmanandapur, Opposite of OMFED Dairy, Bhawanipatna, Odisha 766002, India",
    "City": "Bhawanipatna",
    "State": "Odisha",
    "RegionCode": "BHAW",
    "SubRegionCode": "BHAW",
    "Latitude": "19.9265",
    "Longitude": "83.1518",
    "AvailableFormats": "2D"
  },
  "SALB": {
    "VenueCode": "SALB",
    "VenueName": "Sharma Palace Cinema: Bazpur",
    "VenueAddress": "Kashipur Road, Near Udham Singh Nagar District Co-operative Bank, Bazpur, Uttarakhand 263401, India",
    "City": "Bazpur",
    "State": "Uttarakhand",
    "RegionCode": "BAZP",
    "SubRegionCode": "BAZP",
    "Latitude": "29.1515",
    "Longitude": "79.1447",
    "AvailableFormats": "2D"
  },
  "SCPW": {
    "VenueCode": "SCPW",
    "VenueName": "Saim Cinemas: Palwal",
    "VenueAddress": "Rock Arcade Mall, Near Jila Rozgar Office, Kalyan Enclave, Palwal, Haryana 121102, India",
    "City": "Palwal",
    "State": "Haryana",
    "RegionCode": "PLWL",
    "SubRegionCode": "PLWL",
    "Latitude": "28.1536",
    "Longitude": "77.3272",
    "AvailableFormats": "2D"
  },
  "RAYL": {
    "VenueCode": "RAYL",
    "VenueName": "Redrocks Cherish Cinemas: Palwal",
    "VenueAddress": "Ramnagar, Mathura Road, National Highway 2, Near Hide Out Banquet Hall, Palwal, Haryana 121102, India",
    "City": "Palwal",
    "State": "Haryana",
    "RegionCode": "PLWL",
    "SubRegionCode": "PLWL",
    "Latitude": "28.123",
    "Longitude": "77.331",
    "AvailableFormats": "2D"
  },
  "CMGJ": {
    "VenueCode": "CMGJ",
    "VenueName": "Chhotu Maharaj Cine Cafe: Godda, Jharkhand",
    "VenueAddress": "Rooftop Of Reliance Smart Bazaar, Near Petrol Pump Bhagalpur Road, Godda, Jharkhand 814133, India",
    "City": "Godda",
    "State": "Jharkhand",
    "RegionCode": "GDDA",
    "SubRegionCode": "GDDA",
    "Latitude": "24.8314",
    "Longitude": "87.21",
    "AvailableFormats": "2D"
  },
  "JRCR": {
    "VenueCode": "JRCR",
    "VenueName": "Jai Rajan Cinema: Raghopur",
    "VenueAddress": "Raghopur Police Station, Piprahi, National Highway 106, Near Ganesh Electronics, Raghopur, Bihar 852111, India",
    "City": "Raghopur",
    "State": "Bihar",
    "RegionCode": "RAHO",
    "SubRegionCode": "RAHO",
    "Latitude": "26.3047",
    "Longitude": "86.8414",
    "AvailableFormats": "2D"
  },
  "SRTB": {
    "VenueCode": "SRTB",
    "VenueName": "Sri Renuka Talkies: Belur",
    "VenueAddress": "Next to Belur Public School, Near Sri Veera Anjaneya Swamy Temple, Belur, Karnataka 573115, India",
    "City": "Belur",
    "State": "Karnataka",
    "RegionCode": "BELU",
    "SubRegionCode": "BELU",
    "Latitude": "13.1693",
    "Longitude": "75.8677",
    "AvailableFormats": "2D"
  },
  "ETPB": {
    "VenueCode": "ETPB",
    "VenueName": "The Entertainment Park: Bhavnagar",
    "VenueAddress": "Shiva Blessing 2, Shilpi Nagar, Opposite Bhavnagar Municipal Corporation, Bhavnagar, Gujarat 364001, India",
    "City": "Bhavnagar",
    "State": "Gujarat",
    "RegionCode": "BHNG",
    "SubRegionCode": "BHNG",
    "Latitude": "21.7716",
    "Longitude": "72.1462",
    "AvailableFormats": "2D"
  },
  "MXBN": {
    "VenueCode": "MXBN",
    "VenueName": "Maxus Cinemas: Bhavnagar",
    "VenueAddress": "Himalaya Mall, Waghawadi Rd, Nr ISKCON Mega City, Opp Victoria Park, Bhavnagar, Gujarat 364002, India",
    "City": "Bhavnagar",
    "State": "Gujarat",
    "RegionCode": "BHNG",
    "SubRegionCode": "BHNG",
    "Latitude": "21.7509",
    "Longitude": "72.1364",
    "AvailableFormats": "2D|3D"
  },
  "TOPE": {
    "VenueCode": "TOPE",
    "VenueName": "Top3 Multiplex: Bhavnagar",
    "VenueAddress": "B.A.D.A., Vikash Path, Opposite Natraj Complex, Bhavnagar, Gujarat 364002, India",
    "City": "Bhavnagar",
    "State": "Gujarat",
    "RegionCode": "BHNG",
    "SubRegionCode": "BHNG",
    "Latitude": "21.7302",
    "Longitude": "72.1536",
    "AvailableFormats": "2D"
  },
  "SNLJ": {
    "VenueCode": "SNLJ",
    "VenueName": "Sri Srinivasa Theater A/C Dts: Nallajerla",
    "VenueAddress": "GNT Road, Near Somalamma Thalli Temple, Nallajerla, Andhra Pradesh 534112, India",
    "City": "Nallajerla",
    "State": "Andhra Pradesh",
    "RegionCode": "NALJ",
    "SubRegionCode": "NALJ",
    "Latitude": "16.9415",
    "Longitude": "81.3986",
    "AvailableFormats": "2D"
  },
  "CDDP": {
    "VenueCode": "CDDP",
    "VenueName": "Deva Carnival Cinemas: D Mall, Punalur",
    "VenueAddress": "Market Road, Chemmanthoor, Punalur, Kerala 691305, India",
    "City": "Punalur",
    "State": "Kerala",
    "RegionCode": "PUNA",
    "SubRegionCode": "PUNA",
    "Latitude": "9.02059",
    "Longitude": "76.9193",
    "AvailableFormats": "2D"
  },
  "APCX": {
    "VenueCode": "APCX",
    "VenueName": "ARIESPLEX PUNALUR RGB LASER 4K ATMOS",
    "VenueAddress": "Kalayanad, Kollam Thirumangalam Road, Punalur, Kerala 691305, India",
    "City": "Punalur",
    "State": "Kerala",
    "RegionCode": "PUNA",
    "SubRegionCode": "PUNA",
    "Latitude": "9.01592",
    "Longitude": "76.939",
    "AvailableFormats": "2D"
  },
  "TALP": {
    "VenueCode": "TALP",
    "VenueName": "Thai Lakshmi Cinema: Punalur",
    "VenueAddress": "Kollam Tenkasi Road, T B Junction, Kalayanad, Near Kerala Hotel, Punalur, Kerala 691305, India",
    "City": "Punalur",
    "State": "Kerala",
    "RegionCode": "PUNA",
    "SubRegionCode": "PUNA",
    "Latitude": "9.01869",
    "Longitude": "76.9288",
    "AvailableFormats": "2D"
  },
  "RRMP": {
    "VenueCode": "RRMP",
    "VenueName": "Ramraj Movies",
    "VenueAddress": "National Highway 744, Kollam - Thirumanglam Road, Chemmanthor, Near Hindustan Petroleum, Punalur, Kerala 691305, India",
    "City": "Punalur",
    "State": "Kerala",
    "RegionCode": "PUNA",
    "SubRegionCode": "PUNA",
    "Latitude": "9.01905",
    "Longitude": "76.9203",
    "AvailableFormats": "2D"
  },
  "MAHB": {
    "VenueCode": "MAHB",
    "VenueName": "Madhab Cinema Hall: Bhadrak",
    "VenueAddress": "State Highway 53, Near Randia Children Park, Behind Tarini Temple, Bhadrak, Odisha 756113, India",
    "City": "Bhadrak",
    "State": "Odisha",
    "RegionCode": "BHAD",
    "SubRegionCode": "BHAD",
    "Latitude": "21.0683",
    "Longitude": "86.466",
    "AvailableFormats": "2D"
  },
  "MTKR": {
    "VenueCode": "MTKR",
    "VenueName": "Movietime Cinemas: Karnal",
    "VenueAddress": "Plot No 1, 4th Floor, Super Mall, Sector 12, Part 1, Karnal, Haryana 132001, India",
    "City": "Karnal",
    "State": "Haryana",
    "RegionCode": "KARN",
    "SubRegionCode": "KARN",
    "Latitude": "29.6969",
    "Longitude": "77.0014",
    "AvailableFormats": "2D|3D"
  },
  "KSKL": {
    "VenueCode": "KSKL",
    "VenueName": "Harsh A Movie: Karnal",
    "VenueAddress": "Sector 12, Main Road, Karnal, Haryana 132001, India",
    "City": "Karnal",
    "State": "Haryana",
    "RegionCode": "KARN",
    "SubRegionCode": "KARN",
    "Latitude": "29.6935",
    "Longitude": "77.0028",
    "AvailableFormats": "2D"
  },
  "RJLT": {
    "VenueCode": "RJLT",
    "VenueName": "Rajalakshmi Theatre A/C Dolby Atmos and RGB Laser",
    "VenueAddress": "Ramamoorthy Road, 1st Street, No 165, Virudhunagar, Tamil Nadu 626001, India",
    "City": "Virudhunagar",
    "State": "Tamil Nadu",
    "RegionCode": "VIRU",
    "SubRegionCode": "VIRU",
    "Latitude": "9.58947",
    "Longitude": "77.9584",
    "AvailableFormats": "2D"
  },
  "ATAS": {
    "VenueCode": "ATAS",
    "VenueName": "Apsara Theatre A/C 7.1 Surround System",
    "VenueAddress": "Railway Feeder Road, Sivagami Puram, Virudhunagar, Tamil Nadu 626001, India",
    "City": "Virudhunagar",
    "State": "Tamil Nadu",
    "RegionCode": "VIRU",
    "SubRegionCode": "VIRU",
    "Latitude": "9.59006",
    "Longitude": "77.9557",
    "AvailableFormats": "2D"
  },
  "AMHR": {
    "VenueCode": "AMHR",
    "VenueName": "Amirtharaj Theatre A/C 2K Dolby 7.1: Virudhunagar",
    "VenueAddress": "RR Nagar, Sivagami Puram, Virudhunagar, Tamil Nadu 626001, India",
    "City": "Virudhunagar",
    "State": "Tamil Nadu",
    "RegionCode": "VIRU",
    "SubRegionCode": "VIRU",
    "Latitude": "9.59045",
    "Longitude": "77.9527",
    "AvailableFormats": "2D"
  },
  "RSRM": {
    "VenueCode": "RSRM",
    "VenueName": "Ritzy Sri Ram Cinemas A/C 4K 7.1: Virudhunagar",
    "VenueAddress": "Shivanandham Road, Hanumaan Nagar, Virudhunagar, Tamil Nadu 626001, India",
    "City": "Virudhunagar",
    "State": "Tamil Nadu",
    "RegionCode": "VIRU",
    "SubRegionCode": "VIRU",
    "Latitude": "9.57446",
    "Longitude": "77.9634",
    "AvailableFormats": "2D"
  },
  "GCAT": {
    "VenueCode": "GCAT",
    "VenueName": "Gold Cinema: Golaghat",
    "VenueAddress": "Municipality Complex, Old Jail Road, Near Kutchina Modular Showroom, Golaghat, Assam 785621, India",
    "City": "Golaghat",
    "State": "Assam",
    "RegionCode": "GHT",
    "SubRegionCode": "GHT",
    "Latitude": "26.5113",
    "Longitude": "93.9726",
    "AvailableFormats": "2D"
  },
  "SMML": {
    "VenueCode": "SMML",
    "VenueName": "Suraj Multiplex: Deoria",
    "VenueAddress": "Suraj Multiplex,Suraj Talkies, Hanuman Mandir Road, Raghav Nagar, Deoria, Uttar Pradesh 274001, India",
    "City": "Deoria",
    "State": "Uttar Pradesh",
    "RegionCode": "DEEO",
    "SubRegionCode": "DEEO",
    "Latitude": "26.5027",
    "Longitude": "83.7754",
    "AvailableFormats": "2D"
  },
  "ACCD": {
    "VenueCode": "ACCD",
    "VenueName": "Aura Cineplex: Lar, Deoria",
    "VenueAddress": "Mod, Beside Union Bank Of India, Lakhu, Lar, Deoria, Uttar Pradesh 274502, India",
    "City": "Deoria",
    "State": "Uttar Pradesh",
    "RegionCode": "DEEO",
    "SubRegionCode": "DEEO",
    "Latitude": "26.2107",
    "Longitude": "83.9653",
    "AvailableFormats": "2D"
  },
  "VYDA": {
    "VenueCode": "VYDA",
    "VenueName": "Vijay Talkies: Deoria",
    "VenueAddress": "Saket Nagar, Garulpar, Deoria, Uttar Pradesh 274807, India",
    "City": "Deoria",
    "State": "Uttar Pradesh",
    "RegionCode": "DEEO",
    "SubRegionCode": "DEEO",
    "Latitude": "26.5021",
    "Longitude": "83.7869",
    "AvailableFormats": "2D"
  },
  "MSKT": {
    "VenueCode": "MSKT",
    "VenueName": "Krishna Talkies: Gauri Bazar, Deoria",
    "VenueAddress": "Paragna-Silhat Panankunda, Tappa Indupur, Near Gauri Bazar Tehsil, Deoria, Uttar Pradesh 274202, India",
    "City": "Deoria",
    "State": "Uttar Pradesh",
    "RegionCode": "DEEO",
    "SubRegionCode": "DEEO",
    "Latitude": "26.5923",
    "Longitude": "83.6668",
    "AvailableFormats": "2D"
  },
  "AVDM": {
    "VenueCode": "AVDM",
    "VenueName": "AVD Cinemas: Mahbubnagar",
    "VenueAddress": "Shah Saheb Gutta, Boyapalle Rural, Near Sri Hanuman Temple, Mahbubnagar, Telangana 509001, India",
    "City": "Mahbubnagar",
    "State": "Telangana",
    "RegionCode": "JADC",
    "SubRegionCode": "JADC",
    "Latitude": "16.7451",
    "Longitude": "77.9918",
    "AvailableFormats": "2D"
  },
  "ASMH": {
    "VenueCode": "ASMH",
    "VenueName": "Asian Srinivasa: Mahbubnagar",
    "VenueAddress": "Shah Saheb Gutta, Opposite Rehmania Masjid, Near Model Basic High School, Mahbubnagar, Telangana 509001, India",
    "City": "Mahbubnagar",
    "State": "Telangana",
    "RegionCode": "JADC",
    "SubRegionCode": "JADC",
    "Latitude": "16.7437",
    "Longitude": "77.9912",
    "AvailableFormats": "2D"
  },
  "VTMB": {
    "VenueCode": "VTMB",
    "VenueName": "Venkateswara Theatre: Mahbubnagar",
    "VenueAddress": "Shah Saheb Gutta, Near Srinivasa Theatre, Mahbubnagar, Telangana 509001, India",
    "City": "Mahbubnagar",
    "State": "Telangana",
    "RegionCode": "JADC",
    "SubRegionCode": "JADC",
    "Latitude": "16.744",
    "Longitude": "77.9918",
    "AvailableFormats": "2D"
  },
  "WVMB": {
    "VenueCode": "WVMB",
    "VenueName": "Wave: Moradabad",
    "VenueAddress": "The Westend Mall, F-31 Ram Ganga Vihar Phase-II Near MIT College MDA, Moradabad, Uttar Pradesh 244001, India",
    "City": "Moradabad",
    "State": "Uttar Pradesh",
    "RegionCode": "MORA",
    "SubRegionCode": "MORA",
    "Latitude": "28.8689",
    "Longitude": "78.7581",
    "AvailableFormats": "2D"
  },
  "PPMN": {
    "VenueCode": "PPMN",
    "VenueName": "PVR: Parshvanath, Moradabad",
    "VenueAddress": "Parshvnath Mall, V.C. Road, Ashiyana Colony, Moradabad, Uttar Pradesh 244001, India",
    "City": "Moradabad",
    "State": "Uttar Pradesh",
    "RegionCode": "MORA",
    "SubRegionCode": "MORA",
    "Latitude": "28.8792",
    "Longitude": "78.7397",
    "AvailableFormats": "2D|3D"
  },
  "MTMD": {
    "VenueCode": "MTMD",
    "VenueName": "Movietime Miglani Cinema: Moradabad",
    "VenueAddress": "Rampur Road, Near Old Bus Station, Gandhi Nagar, Moradabad, Uttar Pradesh 244001, India",
    "City": "Moradabad",
    "State": "Uttar Pradesh",
    "RegionCode": "MORA",
    "SubRegionCode": "MORA",
    "Latitude": "28.8252",
    "Longitude": "78.7751",
    "AvailableFormats": "2D|3D"
  },
  "SMMO": {
    "VenueCode": "SMMO",
    "VenueName": "Satyam Cineplex: Moradabad",
    "VenueAddress": "Rampur Road Satyam Cinema, Near Mahindra Auto Spares, Moradabad, Uttar Pradesh 244001, India",
    "City": "Moradabad",
    "State": "Uttar Pradesh",
    "RegionCode": "MORA",
    "SubRegionCode": "MORA",
    "Latitude": "28.8222",
    "Longitude": "78.7784",
    "AvailableFormats": "2D"
  },
  "DLPB": {
    "VenueCode": "DLPB",
    "VenueName": "Dilip Cinema: Barpeta Road",
    "VenueAddress": "Ward No. 9, Barpeta Road Post Office, Barpeta Road, Barpeta Road, Assam 781315, India",
    "City": "Barpeta Road",
    "State": "Assam",
    "RegionCode": "BRPD",
    "SubRegionCode": "BRPD",
    "Latitude": "26.4894",
    "Longitude": "90.9684",
    "AvailableFormats": "2D"
  },
  "AKMD": {
    "VenueCode": "AKMD",
    "VenueName": "Alka Multiplex: Chhindwara",
    "VenueAddress": "Alka Multiplex Alka Cinema Compound, Bus Stand to Station Road, Chhindwara, Madhya Pradesh 480001, India",
    "City": "Chhindwara",
    "State": "Madhya Pradesh",
    "RegionCode": "CHIN",
    "SubRegionCode": "CHIN",
    "Latitude": "22.0607",
    "Longitude": "78.9455",
    "AvailableFormats": "2D|3D"
  },
  "SHRR": {
    "VenueCode": "SHRR",
    "VenueName": "Shreyansh Talkies: Chhindwara",
    "VenueAddress": "Triloki Nagar, Chhota Talab, Chhindwara, Madhya Pradesh 480001, India",
    "City": "Chhindwara",
    "State": "Madhya Pradesh",
    "RegionCode": "CHIN",
    "SubRegionCode": "CHIN",
    "Latitude": "22.057",
    "Longitude": "78.9474",
    "AvailableFormats": "2D"
  },
  "ASCO": {
    "VenueCode": "ASCO",
    "VenueName": "Ascon Multiplex: Parasia",
    "VenueAddress": "Neelkamal Mall, Ward No. 2, Bhopal Road, Parasia, Chhindwara, Madhya Pradesh 480441, India",
    "City": "Chhindwara",
    "State": "Madhya Pradesh",
    "RegionCode": "CHIN",
    "SubRegionCode": "CHIN",
    "Latitude": "22.1988",
    "Longitude": "78.7585",
    "AvailableFormats": "2D"
  },
  "CZVX": {
    "VenueCode": "CZVX",
    "VenueName": "Chatrapati Cinema: Barshi",
    "VenueAddress": "Chatrapati Cinema Hall, Chatrapati Bhavan, Latur Road, Barshi, Maharashtra 413401, India",
    "City": "Barshi",
    "State": "Maharashtra",
    "RegionCode": "BRHI",
    "SubRegionCode": "BRHI",
    "Latitude": "18.2404",
    "Longitude": "75.6974",
    "AvailableFormats": "2D"
  },
  "GCBB": {
    "VenueCode": "GCBB",
    "VenueName": "Golden Cinemax: Barshi",
    "VenueAddress": "M.P complex 1551/1/2CD, Near by Hiremath Hospital, Subhas Nagar, Agalgoan Road, Solapur, Barshi, Maharashtra 413401, India",
    "City": "Barshi",
    "State": "Maharashtra",
    "RegionCode": "BRHI",
    "SubRegionCode": "BRHI",
    "Latitude": "18.2463",
    "Longitude": "75.6966",
    "AvailableFormats": "2D"
  },
  "ATBM": {
    "VenueCode": "ATBM",
    "VenueName": "Asha Talkies: Barshi, Maharashtra",
    "VenueAddress": "Bhim nagar, Parshwanath Marg, Chinch Road, Barshi, Maharashtra 413401, India",
    "City": "Barshi",
    "State": "Maharashtra",
    "RegionCode": "BRHI",
    "SubRegionCode": "BRHI",
    "Latitude": "18.233",
    "Longitude": "75.6911",
    "AvailableFormats": "2D"
  },
  "TCGM": {
    "VenueCode": "TCGM",
    "VenueName": "Tulsi Chitra Mandir: Gopiganj",
    "VenueAddress": "Ram Abhilash Nagar, Tulsi Cinema Road, Gopiganj, Uttar Pradesh 221303, India",
    "City": "Gopiganj",
    "State": "Uttar Pradesh",
    "RegionCode": "GOPI",
    "SubRegionCode": "GOPI",
    "Latitude": "25.2822",
    "Longitude": "82.4353",
    "AvailableFormats": "2D"
  },
  "UMSE": {
    "VenueCode": "UMSE",
    "VenueName": "UGM Cinemas: Ettumanoor",
    "VenueAddress": "State Highway 32, Ettumanoor, Near Needs Supermarket, Ettumanoor, Kerala 686631, India",
    "City": "Ettumanoor",
    "State": "Kerala",
    "RegionCode": "ETTU",
    "SubRegionCode": "ETTU",
    "Latitude": "9.6688",
    "Longitude": "76.5507",
    "AvailableFormats": "2D"
  },
  "NKCL": {
    "VenueCode": "NKCL",
    "VenueName": "A Nakshatra Cinemas: Lakhimpur",
    "VenueAddress": "Adarsha Market Complex, North Lakhimpur, CD Road, Near State Bank of India, Lakhimpur, Assam 787001, India",
    "City": "Lakhimpur",
    "State": "Assam",
    "RegionCode": "LAHA",
    "SubRegionCode": "LAHA",
    "Latitude": "27.2374",
    "Longitude": "94.1065",
    "AvailableFormats": "2D"
  },
  "BTLR": {
    "VenueCode": "BTLR",
    "VenueName": "Biswa Talkies: Lakhimpur",
    "VenueAddress": "Biswa Talkies, NH 15, North Lakhimpur, Lakhimpur, Assam 787001, India",
    "City": "Lakhimpur",
    "State": "Assam",
    "RegionCode": "LAHA",
    "SubRegionCode": "LAHA",
    "Latitude": "27.2365",
    "Longitude": "94.1042",
    "AvailableFormats": "2D"
  },
  "GOCL": {
    "VenueCode": "GOCL",
    "VenueName": "Gold Cinema: Lakhimpur",
    "VenueAddress": "North Lakhimpur, Thakurbari Road, Lakhimpur, Assam 787001, India",
    "City": "Lakhimpur",
    "State": "Assam",
    "RegionCode": "LAHA",
    "SubRegionCode": "LAHA",
    "Latitude": "27.2362",
    "Longitude": "94.1016",
    "AvailableFormats": "2D"
  },
  "MIRN": {
    "VenueCode": "MIRN",
    "VenueName": "Miraj Cinemas: NBC, Nandurbar",
    "VenueAddress": "Nandurbar Business Centre, S. No 387/2, Surat Bypass Road, Nandurbar, Maharashtra 425412, India",
    "City": "Nandurbar",
    "State": "Maharashtra",
    "RegionCode": "NDNB",
    "SubRegionCode": "NDNB",
    "Latitude": "21.3537",
    "Longitude": "74.2424",
    "AvailableFormats": "2D|3D"
  },
  "THEC": {
    "VenueCode": "THEC",
    "VenueName": "The Cinema: Kalyanpur",
    "VenueAddress": "Kalyanpur Block, East Champaran, Motihari, Bihar 845413, India",
    "City": "Motihari",
    "State": "Bihar",
    "RegionCode": "MOTI",
    "SubRegionCode": "MOTI",
    "Latitude": "26.4348",
    "Longitude": "84.9347",
    "AvailableFormats": "2D"
  },
  "SPPB": {
    "VenueCode": "SPPB",
    "VenueName": "Sangeet Cinema: Motihari",
    "VenueAddress": "Chatauni Chowk, Refugee Colony, Motihari, Bihar 845401, India",
    "City": "Motihari",
    "State": "Bihar",
    "RegionCode": "MOTI",
    "SubRegionCode": "MOTI",
    "Latitude": "26.6474",
    "Longitude": "84.9297",
    "AvailableFormats": "2D"
  },
  "PMMM": {
    "VenueCode": "PMMM",
    "VenueName": "Payal Cinema: Motihari",
    "VenueAddress": "Refugee Colony, Motihari-Madubanighat-Pakridayal Road, Motihari, Bihar 845401, India",
    "City": "Motihari",
    "State": "Bihar",
    "RegionCode": "MOTI",
    "SubRegionCode": "MOTI",
    "Latitude": "26.6464",
    "Longitude": "84.9291",
    "AvailableFormats": "2D"
  },
  "GGMC": {
    "VenueCode": "GGMC",
    "VenueName": "Prime Cinemas Shiv Mandir: Hanumangarh",
    "VenueAddress": "Rajasthan State, Shopat Singh Marg, Model Town, Hanumangarh, Rajasthan 335512, India",
    "City": "Hanumangarh",
    "State": "Rajasthan",
    "RegionCode": "HNMG",
    "SubRegionCode": "HNMG",
    "Latitude": "29.6216",
    "Longitude": "74.2862",
    "AvailableFormats": "2D"
  },
  "AVSR": {
    "VenueCode": "AVSR",
    "VenueName": "AVS Cinema: Rajasthan",
    "VenueAddress": "Factory Outlet, NH54, Hanumangarh Sangria Highway, Manaksar, 2 Std, Hanumangarh, Rajasthan 335513, India",
    "City": "Hanumangarh",
    "State": "Rajasthan",
    "RegionCode": "HNMG",
    "SubRegionCode": "HNMG",
    "Latitude": "29.6609",
    "Longitude": "74.3662",
    "AvailableFormats": "2D"
  },
  "RDMH": {
    "VenueCode": "RDMH",
    "VenueName": "Ramdas Movie House: Thrissur",
    "VenueAddress": "M.G. Road, Thrissur, Thrissur, Kerala 680001, India",
    "City": "Thrissur",
    "State": "Kerala",
    "RegionCode": "THSR",
    "SubRegionCode": "THSR",
    "Latitude": "10.5245",
    "Longitude": "76.2109",
    "AvailableFormats": "2D"
  },
  "JSRS": {
    "VenueCode": "JSRS",
    "VenueName": "Jos Theatre 4K RGB Laser Atmos: Thrissur",
    "VenueAddress": "Kuruppam, Round South, Near Municipal Stand, Thrissur, Kerala 680001, India",
    "City": "Thrissur",
    "State": "Kerala",
    "RegionCode": "THSR",
    "SubRegionCode": "THSR",
    "Latitude": "10.5224",
    "Longitude": "76.2155",
    "AvailableFormats": "2D"
  },
  "VKGP": {
    "VenueCode": "VKGP",
    "VenueName": "VKG CINEMAS 4K RGB LASER DOLBY ATMOS: PAVARATTY",
    "VenueAddress": "Chavara Shopping Complex, Pavaratty, Guruvayur, Kerala 680507, India",
    "City": "Guruvayur",
    "State": "Kerala",
    "RegionCode": "THSR",
    "SubRegionCode": "THSR",
    "Latitude": "10.5653",
    "Longitude": "76.0626",
    "AvailableFormats": "2D"
  },
  "ACRT": {
    "VenueCode": "ACRT",
    "VenueName": "Acchi Reddy Theater A/c Dolby DTS: Haliya",
    "VenueAddress": "NH 565, Near ICICI Bank ATM, Haliya, Telangana 508377, India",
    "City": "Haliya",
    "State": "Telangana",
    "RegionCode": "HALI",
    "SubRegionCode": "HALI",
    "Latitude": "16.7799",
    "Longitude": "79.3224",
    "AvailableFormats": "2D"
  },
  "GCBA": {
    "VenueCode": "GCBA",
    "VenueName": "GE Cinemas: Barnala",
    "VenueAddress": "Bathinda Road, Near T-Point, Barnala, Punjab 148101, India",
    "City": "Barnala",
    "State": "Punjab",
    "RegionCode": "BAR",
    "SubRegionCode": "BAR",
    "Latitude": "30.2621",
    "Longitude": "75.2356",
    "AvailableFormats": "2D"
  },
  "GTCP": {
    "VenueCode": "GTCP",
    "VenueName": "Gayatri Theatre: Channarayapatna",
    "VenueAddress": "Renukamba Road, Near Channarayapatna Post Office, Channarayapatna, Karnataka 573116, India",
    "City": "Channarayapatna",
    "State": "Karnataka",
    "RegionCode": "CHNN",
    "SubRegionCode": "CHNN",
    "Latitude": "12.9053",
    "Longitude": "76.3896",
    "AvailableFormats": "2D"
  },
  "AKFC": {
    "VenueCode": "AKFC",
    "VenueName": "Alakode Film City 4K Dolby Atmos",
    "VenueAddress": "Kottayadu Kavala, Malabar Hill Highway, Near St.Marys Forane Church, Alakode, Kerala 670571, India",
    "City": "Alakode",
    "State": "Kerala",
    "RegionCode": "ALAK",
    "SubRegionCode": "ALAK",
    "Latitude": "12.1785",
    "Longitude": "75.4649",
    "AvailableFormats": "2D"
  },
  "INCS": {
    "VenueCode": "INCS",
    "VenueName": "INOX: Cuttack SGBL Square Mall",
    "VenueAddress": "SGBL Square,Town Hall Road, Unit No. 15, Choudhury Bazar, Cuttack, Odisha 753009, India",
    "City": "Cuttack",
    "State": "Odisha",
    "RegionCode": "CUTT",
    "SubRegionCode": "CUTT",
    "Latitude": "20.4613",
    "Longitude": "85.8691",
    "AvailableFormats": "3D|2D"
  },
  "SMCK": {
    "VenueCode": "SMCK",
    "VenueName": "Sangam Cineplex: Cuttack",
    "VenueAddress": "Sangam, Mahatab Rd, Badambadi Colony, Near JMG Hero Motorcorp, Cuttack, Odisha 753009, India",
    "City": "Cuttack",
    "State": "Odisha",
    "RegionCode": "CUTT",
    "SubRegionCode": "CUTT",
    "Latitude": "20.4604",
    "Longitude": "85.8866",
    "AvailableFormats": "2D"
  },
  "BRUN": {
    "VenueCode": "BRUN",
    "VenueName": "Brundaban (4k, Dolby Atmos 64 Channel Sounds)",
    "VenueAddress": "Bajrakabati Road, Siba Bazar, Near Bank Of India, Cuttack, Odisha 753001, India",
    "City": "Cuttack",
    "State": "Odisha",
    "RegionCode": "CUTT",
    "SubRegionCode": "CUTT",
    "Latitude": "20.465",
    "Longitude": "85.8852",
    "AvailableFormats": "2D|3D"
  },
  "RPPC": {
    "VenueCode": "RPPC",
    "VenueName": "Raghu Picture Palace: Cherla",
    "VenueAddress": "Near Srinivas Mobiles, SH 12, Cherla, Telangana 507133, India",
    "City": "Cherla",
    "State": "Telangana",
    "RegionCode": "CHRL",
    "SubRegionCode": "CHRL",
    "Latitude": "18.0799",
    "Longitude": "80.8238",
    "AvailableFormats": "2D"
  },
  "PAYD": {
    "VenueCode": "PAYD",
    "VenueName": "Parameswari A/C DTS: Yellamanchili",
    "VenueAddress": "Shivalayam Road, Near Niharika Steel Shop, Yellamanchili, Andhra Pradesh 531055, India",
    "City": "Yellamanchili",
    "State": "Andhra Pradesh",
    "RegionCode": "YLMN",
    "SubRegionCode": "YLMN",
    "Latitude": "17.5497",
    "Longitude": "82.8519",
    "AvailableFormats": "2D"
  },
  "SVVT": {
    "VenueCode": "SVVT",
    "VenueName": "Venkateswara AC Christie Laser 2K Dolby:Vissanapet",
    "VenueAddress": "CPM Office Road, Next to Lavanya Cloth and  RM Showroom, Vissannapeta, Andhra Pradesh 521215, India",
    "City": "Vissannapeta",
    "State": "Andhra Pradesh",
    "RegionCode": "VSNP",
    "SubRegionCode": "VSNP",
    "Latitude": "16.9405",
    "Longitude": "80.7834",
    "AvailableFormats": "2D"
  },
  "RNCC": {
    "VenueCode": "RNCC",
    "VenueName": "Raj Cineplex: Karjat",
    "VenueAddress": "Opposite Amba Mata Mandir, Aamrai, Karjat, Maharashtra 410201, India",
    "City": "Karjat",
    "State": "Maharashtra",
    "RegionCode": "KART",
    "SubRegionCode": "KART",
    "Latitude": "18.9091",
    "Longitude": "73.3269",
    "AvailableFormats": "2D"
  },
  "PCRC": {
    "VenueCode": "PCRC",
    "VenueName": "PVR: City Center, Raipur",
    "VenueAddress": "2nd Floor, City Center Mall, Devendra Nagar, Pandri, Opposite EPF Office, Raipur, Chhattisgarh 492001, India",
    "City": "Raipur",
    "State": "Chhattisgarh",
    "RegionCode": "RAIPUR",
    "SubRegionCode": "RAIPUR",
    "Latitude": "21.2551",
    "Longitude": "81.6463",
    "AvailableFormats": "2D|3D"
  },
  "PMRM": {
    "VenueCode": "PMRM",
    "VenueName": "PVR: Magneto Mall, Raipur",
    "VenueAddress": "2nd floor, Magneto The Mall, GE Road, NH6, Opposite City Mall, Raipur, Chhattisgarh 492001, India",
    "City": "Raipur",
    "State": "Chhattisgarh",
    "RegionCode": "RAIPUR",
    "SubRegionCode": "RAIPUR",
    "Latitude": "21.2398",
    "Longitude": "81.684",
    "AvailableFormats": "2D|3D"
  },
  "CCRP": {
    "VenueCode": "CCRP",
    "VenueName": "Colors Cinemas: Colors Mall, Raipur",
    "VenueAddress": "Colors Cinema, 3rd floor, Colors Mall, Pachpedi Naka, NH 43, Raipur, Chhattisgarh 492001, India",
    "City": "Raipur",
    "State": "Chhattisgarh",
    "RegionCode": "RAIPUR",
    "SubRegionCode": "RAIPUR",
    "Latitude": "21.2173",
    "Longitude": "81.6566",
    "AvailableFormats": "2D"
  },
  "INCR": {
    "VenueCode": "INCR",
    "VenueName": "INOX: Ambuja City Centre, Raipur",
    "VenueAddress": "1st Floor, Ambuja City Centre Mall, Vishan Sabha Road, Mowa, Near Saddu Nala, Raipur, Chhattisgarh 492007, India",
    "City": "Raipur",
    "State": "Chhattisgarh",
    "RegionCode": "RAIPUR",
    "SubRegionCode": "RAIPUR",
    "Latitude": "21.2764",
    "Longitude": "81.6873",
    "AvailableFormats": "2D|3D"
  },
  "ZTMP": {
    "VenueCode": "ZTMP",
    "VenueName": "PVR: Zora The Mall, Raipur",
    "VenueAddress": "3rd Floor, Zora the Mall, Jora, Opposite Agriculture College, Raipur, Chhattisgarh 492012, India",
    "City": "Raipur",
    "State": "Chhattisgarh",
    "RegionCode": "RAIPUR",
    "SubRegionCode": "RAIPUR",
    "Latitude": "21.246",
    "Longitude": "81.5776",
    "AvailableFormats": "2D"
  },
  "MCNR": {
    "VenueCode": "MCNR",
    "VenueName": "Miraj Cinemas: Nava Raipur, Atal Nagar",
    "VenueAddress": "GS Entertainment, 4th Floor, Block E9-B, Retail Complex, Central Business District, Sector - 21, Nava Raipur Atal Nagar, Raipur, Chhattisgarh 492101, India",
    "City": "Raipur",
    "State": "Chhattisgarh",
    "RegionCode": "RAIPUR",
    "SubRegionCode": "RAIPUR",
    "Latitude": "21.1704",
    "Longitude": "81.7708",
    "AvailableFormats": "3D|2D"
  },
  "INRP": {
    "VenueCode": "INRP",
    "VenueName": "INOX: City Mall 36, G E Road",
    "VenueAddress": "3rd Floor, City Mall 36, Great Eastern Road, NH-6, Vishal Nagar, Raipur, Chhattisgarh 492001, India",
    "City": "Raipur",
    "State": "Chhattisgarh",
    "RegionCode": "RAIPUR",
    "SubRegionCode": "RAIPUR",
    "Latitude": "21.2364",
    "Longitude": "81.6856",
    "AvailableFormats": "3D|2D"
  },
  "STRC": {
    "VenueCode": "STRC",
    "VenueName": "Shyam Talkies (2K Laser, 5.1 Dolby): Raipur",
    "VenueAddress": "Sadar Bazaar, Budhapara, Opposite Budhapara Lake, Raipur, Chhattisgarh 492001, India",
    "City": "Raipur",
    "State": "Chhattisgarh",
    "RegionCode": "RAIPUR",
    "SubRegionCode": "RAIPUR",
    "Latitude": "21.2356",
    "Longitude": "81.6327",
    "AvailableFormats": "2D"
  },
  "RATI": {
    "VenueCode": "RATI",
    "VenueName": "FUN Cinemas Raj Talkies: Raipur",
    "VenueAddress": "New Bombay Market, Great Eastern Road, Raipur, Chhattisgarh 492001, India",
    "City": "Raipur",
    "State": "Chhattisgarh",
    "RegionCode": "RAIPUR",
    "SubRegionCode": "RAIPUR",
    "Latitude": "21.2439",
    "Longitude": "81.6374",
    "AvailableFormats": "2D"
  },
  "PBTR": {
    "VenueCode": "PBTR",
    "VenueName": "Prabhat Talkies: Raipur",
    "VenueAddress": "Janta Colony, Gudhiyari, Station Road, Near Rathore Chowk, Raipur, Chhattisgarh 492009, India",
    "City": "Raipur",
    "State": "Chhattisgarh",
    "RegionCode": "RAIPUR",
    "SubRegionCode": "RAIPUR",
    "Latitude": "21.2501",
    "Longitude": "81.6306",
    "AvailableFormats": "2D"
  },
  "CMHP": {
    "VenueCode": "CMHP",
    "VenueName": "Chhotu Maharaj Cine Cafe: Puranpur, UP",
    "VenueAddress": "Opposite - Jaswanti Rice Mill, Village-  Khamariya Patti, LIC Road, Puranpur, Uttar Pradesh 262122, India",
    "City": "Puranpur",
    "State": "Uttar Pradesh",
    "RegionCode": "PAPN",
    "SubRegionCode": "PAPN",
    "Latitude": "28.5157",
    "Longitude": "80.1312",
    "AvailableFormats": "2D"
  },
  "ZECJ": {
    "VenueCode": "ZECJ",
    "VenueName": "Zele Cinema: Jaysingpur",
    "VenueAddress": "Purtiwadi, Kolhapur-Sangli Highway, Jaysingpur, Maharashtra 416101, India",
    "City": "Jaysingpur",
    "State": "Maharashtra",
    "RegionCode": "JYSP",
    "SubRegionCode": "JYSP",
    "Latitude": "16.7814",
    "Longitude": "74.5565",
    "AvailableFormats": "2D"
  },
  "CCCB": {
    "VenueCode": "CCCB",
    "VenueName": "Cosmo Cinemas PEELAMEDU AC 4K RGB Lase:Coimbatore",
    "VenueAddress": "14, Renganayaki Nagar, Thirumagal Nagar, Udayampalayam, Coimbatore, Tamil Nadu 641028, India",
    "City": "Coimbatore",
    "State": "Tamil Nadu",
    "RegionCode": "COIM",
    "SubRegionCode": "COIM",
    "Latitude": "11.0137",
    "Longitude": "77.0026",
    "AvailableFormats": "2D"
  },
  "BWCB": {
    "VenueCode": "BWCB",
    "VenueName": "Broadway Cinemas: Coimbatore",
    "VenueAddress": "96, Broadway Square, Off Avinashi Road, Civil Aerodrome Post, Coimbatore, Tamil Nadu 641014, India",
    "City": "Coimbatore",
    "State": "Tamil Nadu",
    "RegionCode": "COIM",
    "SubRegionCode": "COIM",
    "Latitude": "11.0459",
    "Longitude": "77.0415",
    "AvailableFormats": "IMAX 2D|2D"
  },
  "CCAT": {
    "VenueCode": "CCAT",
    "VenueName": "Cosmo Cinemas: NARASIMANAIKEN PALAYAM, AC 4k ATMOS",
    "VenueAddress": "2A/12, Padmalaya Nagar, Narasimhanaickenpalayam, Coimbatore, Tamil Nadu 641031, India",
    "City": "Coimbatore",
    "State": "Tamil Nadu",
    "RegionCode": "COIM",
    "SubRegionCode": "COIM",
    "Latitude": "11.1121",
    "Longitude": "76.9355",
    "AvailableFormats": "2D"
  },
  "KGCM": {
    "VenueCode": "KGCM",
    "VenueName": "KG Cinemas: Coimbatore",
    "VenueAddress": "No.3, Bungalow Road, Race Course, Near K G Hospital, Coimbatore, Tamil Nadu 641018, India",
    "City": "Coimbatore",
    "State": "Tamil Nadu",
    "RegionCode": "COIM",
    "SubRegionCode": "COIM",
    "Latitude": "11.0001",
    "Longitude": "76.9721",
    "AvailableFormats": "2D"
  },
  "INPT": {
    "VenueCode": "INPT",
    "VenueName": "INOX: Prozone Mall, Coimbatore",
    "VenueAddress": "S.F. No. 201, Sathy Main Road, Coimbatore, Tamil Nadu 641035, India",
    "City": "Coimbatore",
    "State": "Tamil Nadu",
    "RegionCode": "COIM",
    "SubRegionCode": "COIM",
    "Latitude": "11.0548",
    "Longitude": "76.9943",
    "AvailableFormats": "2D|3D"
  },
  "FNCO": {
    "VenueCode": "FNCO",
    "VenueName": "Cinepolis: Fun Republic Mall, Coimbatore",
    "VenueAddress": "Peelamedu, Avinashi Road, Peelamedu, Near PSGR Krishnammal College, Coimbatore, Tamil Nadu 641004, India",
    "City": "Coimbatore",
    "State": "Tamil Nadu",
    "RegionCode": "COIM",
    "SubRegionCode": "COIM",
    "Latitude": "11.0247",
    "Longitude": "77.0104",
    "AvailableFormats": "2D"
  },
  "SRMJ": {
    "VenueCode": "SRMJ",
    "VenueName": "SRK Miraj Cinemas: Coimbatore",
    "VenueAddress": "Sri Hari Mills, Kamachipuram, Trichy road, Near Ondipudur Flyover, Coimbatore, Tamil Nadu 641016, India",
    "City": "Coimbatore",
    "State": "Tamil Nadu",
    "RegionCode": "COIM",
    "SubRegionCode": "COIM",
    "Latitude": "11.0026",
    "Longitude": "77.0606",
    "AvailableFormats": "2D"
  },
  "PFSC": {
    "VenueCode": "PFSC",
    "VenueName": "PVR: Alveal Fun Savvy Mall, Coimbatore",
    "VenueAddress": "2nd Floor, Alveal Fun Savvy Mall, Nethaji Road, PN Pudur, Coimbatore, Tamil Nadu 641041, India",
    "City": "Coimbatore",
    "State": "Tamil Nadu",
    "RegionCode": "COIM",
    "SubRegionCode": "COIM",
    "Latitude": "11.0149",
    "Longitude": "76.9232",
    "AvailableFormats": "2D"
  },
  "PBMC": {
    "VenueCode": "PBMC",
    "VenueName": "PVR: Brookefields Mall, Coimbatore",
    "VenueAddress": "4th Floor, Brookefields Mall, Krishnaswamy Road, Coimbatore, Tamil Nadu 641001, India",
    "City": "Coimbatore",
    "State": "Tamil Nadu",
    "RegionCode": "COIM",
    "SubRegionCode": "COIM",
    "Latitude": "11.0096",
    "Longitude": "76.959",
    "AvailableFormats": "2D|3D"
  },
  "KARP": {
    "VenueCode": "KARP",
    "VenueName": "Karpagam Theatres 4K Dolby Atmos: Coimbatore",
    "VenueAddress": "No-161, 100 Feet Road, Gandhi Puram, Opposite Bharath Electronics, Coimbatore, Tamil Nadu 641012, India",
    "City": "Coimbatore",
    "State": "Tamil Nadu",
    "RegionCode": "COIM",
    "SubRegionCode": "COIM",
    "Latitude": "11.0194",
    "Longitude": "76.9638",
    "AvailableFormats": "2D"
  },
  "KOVI": {
    "VenueCode": "KOVI",
    "VenueName": "Kovai Shanti Complex 4K 3D: Coimbatore",
    "VenueAddress": "7/21, State Bank Road, Gopala Puram, Near Annamali hotel, Coimbatore, Tamil Nadu 641018, India",
    "City": "Coimbatore",
    "State": "Tamil Nadu",
    "RegionCode": "COIM",
    "SubRegionCode": "COIM",
    "Latitude": "10.9989",
    "Longitude": "76.9686",
    "AvailableFormats": "2D"
  },
  "ACXL": {
    "VenueCode": "ACXL",
    "VenueName": "Ambal Complex (Senthil Kumaran): Coimbatore",
    "VenueAddress": "109, Senthil kumaran Theatre, Gokhale St, Peranaidu Layout, Ram Nagar, Coimbatore, Tamil Nadu 641009, India",
    "City": "Coimbatore",
    "State": "Tamil Nadu",
    "RegionCode": "COIM",
    "SubRegionCode": "COIM",
    "Latitude": "11.0148",
    "Longitude": "76.9649",
    "AvailableFormats": "2D"
  },
  "GKCC": {
    "VenueCode": "GKCC",
    "VenueName": "Gokulam Cinemas A/C 2K: Coimbatore",
    "VenueAddress": "Siruvani Road, Alandurai, Near Canara Bank, Coimbatore, Tamil Nadu 641010, India",
    "City": "Coimbatore",
    "State": "Tamil Nadu",
    "RegionCode": "COIM",
    "SubRegionCode": "COIM",
    "Latitude": "10.9543",
    "Longitude": "76.7892",
    "AvailableFormats": "2D"
  },
  "ASCC": {
    "VenueCode": "ASCC",
    "VenueName": "Arasan Cinemas A/C 4K Dolby: Coimbatore",
    "VenueAddress": "231, Sundarapuram,Podanur, Sarada Mill Road, Near Podanur Panchayat Office, Coimbatore, Tamil Nadu 641023, India",
    "City": "Coimbatore",
    "State": "Tamil Nadu",
    "RegionCode": "COIM",
    "SubRegionCode": "COIM",
    "Latitude": "10.9599",
    "Longitude": "76.9808",
    "AvailableFormats": "2D"
  },
  "SETC": {
    "VenueCode": "SETC",
    "VenueName": "Sangeetha Multiplex: Somanur",
    "VenueAddress": "State Highway 165, Kamanaikenpalayam, Annur Road, Bharathiyar Nagar, Ganesh Puram, Somanur, Near St Joseph Girls High School, Coimbatore, Tamil Nadu 641008, India",
    "City": "Coimbatore",
    "State": "Tamil Nadu",
    "RegionCode": "COIM",
    "SubRegionCode": "COIM",
    "Latitude": "11.0905",
    "Longitude": "77.1842",
    "AvailableFormats": "2D"
  },
  "KACC": {
    "VenueCode": "KACC",
    "VenueName": "Kavitha Cinemas 4K Dolby Atmos: K.G. Chavadi",
    "VenueAddress": "K.G.Chavadi Bypass Road, Kandhe Gounden Chavadi, Coimbatore, Tamil Nadu 641105, India",
    "City": "Coimbatore",
    "State": "Tamil Nadu",
    "RegionCode": "COIM",
    "SubRegionCode": "COIM",
    "Latitude": "10.8806",
    "Longitude": "76.9057",
    "AvailableFormats": "2D"
  },
  "KAVE": {
    "VenueCode": "KAVE",
    "VenueName": "Kaveri Cinema: Coimbatore",
    "VenueAddress": "No 167, Dr Rajendraprasad Road (100 ft road), Karpagam Cine Complex, Gandhipuram, Coimbatore, Tamil Nadu 641012, India",
    "City": "Coimbatore",
    "State": "Tamil Nadu",
    "RegionCode": "COIM",
    "SubRegionCode": "COIM",
    "Latitude": "11.0192",
    "Longitude": "76.9639",
    "AvailableFormats": "2D"
  },
  "CNTC": {
    "VenueCode": "CNTC",
    "VenueName": "Carnatic Cinema: Coimbatore",
    "VenueAddress": "191, Big Bazar Street, Town Hall, Near Railway Station, Near Koniammam Temple, Coimbatore, Tamil Nadu 641001, India",
    "City": "Coimbatore",
    "State": "Tamil Nadu",
    "RegionCode": "COIM",
    "SubRegionCode": "COIM",
    "Latitude": "10.9935",
    "Longitude": "76.9642",
    "AvailableFormats": "2D"
  },
  "MEEN": {
    "VenueCode": "MEEN",
    "VenueName": "Meenambiga Cinemas A/C 2K DOLBY ATMOS: Somanur",
    "VenueAddress": "Somanur Rd,Bharathiyar Nagar, Somanur,Tamil Nadu, Coimbatore, Tamil Nadu 641668, India",
    "City": "Coimbatore",
    "State": "Tamil Nadu",
    "RegionCode": "COIM",
    "SubRegionCode": "COIM",
    "Latitude": "11.0831",
    "Longitude": "77.186",
    "AvailableFormats": "2D"
  },
  "BMRV": {
    "VenueCode": "BMRV",
    "VenueName": "BMR CINEMAX: Veeraghattam",
    "VenueAddress": "Jiyyammavalasa Road, Down street, Veeraghattam, Andhra Pradesh 532460, India",
    "City": "Veeraghattam",
    "State": "Andhra Pradesh",
    "RegionCode": "VEER",
    "SubRegionCode": "VEER",
    "Latitude": "18.6896",
    "Longitude": "83.6086",
    "AvailableFormats": "2D"
  },
  "SVAM": {
    "VenueCode": "SVAM",
    "VenueName": "SV Cinemas: Bangarupalem",
    "VenueAddress": "5WW7+RQ6, kurappali, Thagguvaripalli, Bangarupalem, Andhra Pradesh 517416, India",
    "City": "Bangarupalem",
    "State": "Andhra Pradesh",
    "RegionCode": "BGPM",
    "SubRegionCode": "BGPM",
    "Latitude": "13.1967",
    "Longitude": "78.9138",
    "AvailableFormats": "2D"
  },
  "VTBP": {
    "VenueCode": "VTBP",
    "VenueName": "Vinayaka Theatre: Bangarupalyam (Newly Renovated)",
    "VenueAddress": "Vinayaka Theater, Bangarupalyam, Kurappali, Bangarupalem, Andhra Pradesh 517416, India",
    "City": "Bangarupalem",
    "State": "Andhra Pradesh",
    "RegionCode": "BGPM",
    "SubRegionCode": "BGPM",
    "Latitude": "13.1982",
    "Longitude": "78.9136",
    "AvailableFormats": "2D"
  },
  "VCKN": {
    "VenueCode": "VCKN",
    "VenueName": "SVF Cinemas: Krishnanagar",
    "VenueAddress": "Consignee Sentrum Mall, P.S Kotwali, NH34, Above Big Bazar, Krishnanagar, West Bengal 741101, India",
    "City": "Krishnanagar",
    "State": "West Bengal",
    "RegionCode": "KNWB",
    "SubRegionCode": "KNWB",
    "Latitude": "23.399",
    "Longitude": "88.4761",
    "AvailableFormats": "2D|3D"
  },
  "SGTK": {
    "VenueCode": "SGTK",
    "VenueName": "Sangeeta Talkies: Krishnanagar",
    "VenueAddress": "105, Sukanta Sarani, Opposite Sankar Da Chayer Dokan, Nadia Near Dutta Pharmacy, Krishnanagar, West Bengal 741101, India",
    "City": "Krishnanagar",
    "State": "West Bengal",
    "RegionCode": "KNWB",
    "SubRegionCode": "KNWB",
    "Latitude": "23.4089",
    "Longitude": "88.5003",
    "AvailableFormats": "2D"
  },
  "RCGS": {
    "VenueCode": "RCGS",
    "VenueName": "Rajhans Cinemas: Golden Square, Bharuch",
    "VenueAddress": "RAJHANS CINE WORLD PVT LTD, Ground Floor, Golden Square Mall, Beside D-Mart, Near ABC Circle, Bholav, Bharuch, Gujarat 392001, India",
    "City": "Bharuch",
    "State": "Gujarat",
    "RegionCode": "BHAR",
    "SubRegionCode": "BHAR",
    "Latitude": "21.723",
    "Longitude": "73.0049",
    "AvailableFormats": "2D"
  },
  "RCCB": {
    "VenueCode": "RCCB",
    "VenueName": "Rajhans Cinemas: City Center Mall, Bharuch",
    "VenueAddress": "Rajhans Cine World Pvt. Ltd. 3rd Floor, Rajhans City Center, City Center Bus Station, Near Railway Station, Bharuch, Gujarat 392001, India",
    "City": "Bharuch",
    "State": "Gujarat",
    "RegionCode": "BHAR",
    "SubRegionCode": "BHAR",
    "Latitude": "21.704",
    "Longitude": "72.9972",
    "AvailableFormats": "2D"
  },
  "RKSR": {
    "VenueCode": "RKSR",
    "VenueName": "RK Cinemas: Shree Rang, Bharuch",
    "VenueAddress": "Shree Rang Complex, Zadeshwar Road, Bharuch, Gujarat 392001, India",
    "City": "Bharuch",
    "State": "Gujarat",
    "RegionCode": "BHAR",
    "SubRegionCode": "BHAR",
    "Latitude": "21.716",
    "Longitude": "73.0182",
    "AvailableFormats": "2D"
  },
  "RKCU": {
    "VenueCode": "RKCU",
    "VenueName": "RK Cinemas: Blue Chip, Bharuch",
    "VenueAddress": "Blue Chip Building, Near ICICI Bank, Sewashram Road, Bharuch, Gujarat 392001, India",
    "City": "Bharuch",
    "State": "Gujarat",
    "RegionCode": "BHAR",
    "SubRegionCode": "BHAR",
    "Latitude": "21.7041",
    "Longitude": "72.9867",
    "AvailableFormats": "2D"
  },
  "GIBH": {
    "VenueCode": "GIBH",
    "VenueName": "Gold Cinema, Shalimar: Bharuch",
    "VenueAddress": "2nd Floor,Shalimar Mall, Railway Station Road, Bharuch, Gujarat 392001, India",
    "City": "Bharuch",
    "State": "Gujarat",
    "RegionCode": "BHAR",
    "SubRegionCode": "BHAR",
    "Latitude": "21.701",
    "Longitude": "72.9914",
    "AvailableFormats": "2D"
  },
  "CXBS": {
    "VenueCode": "CXBS",
    "VenueName": "Connplex Cinemas: Bharuch Shilpi Square",
    "VenueAddress": "1st FloorShilpiMultiplex Building, ShilpiSquare, Dahej Bypass Road, Bharuch, Gujarat 392015, India",
    "City": "Bharuch",
    "State": "Gujarat",
    "RegionCode": "BHAR",
    "SubRegionCode": "BHAR",
    "Latitude": "21.719",
    "Longitude": "72.9784",
    "AvailableFormats": "2D"
  },
  "GGCB": {
    "VenueCode": "GGCB",
    "VenueName": "Gursikh Goldmark Cinemas (Dolby Atmos): Burhanpur",
    "VenueAddress": "Gursikh Mall, New Market, Sanwara, Road, Sindhi Basti, Burhanpur, Madhya Pradesh 450331, India",
    "City": "Burhanpur",
    "State": "Madhya Pradesh",
    "RegionCode": "BRHP",
    "SubRegionCode": "BRHP",
    "Latitude": "21.3138",
    "Longitude": "76.2223",
    "AvailableFormats": "2D|3D"
  },
  "SCPB": {
    "VenueCode": "SCPB",
    "VenueName": "Shankar Cineplex: Burhanpur",
    "VenueAddress": "Mahajanapeth Road, Sanjay Nagar, Burhanpur, Madhya Pradesh 450331, India",
    "City": "Burhanpur",
    "State": "Madhya Pradesh",
    "RegionCode": "BRHP",
    "SubRegionCode": "BRHP",
    "Latitude": "21.3025",
    "Longitude": "76.2306",
    "AvailableFormats": "2D"
  },
  "AKTB": {
    "VenueCode": "AKTB",
    "VenueName": "Ankita Multiplex: Burhanpur",
    "VenueAddress": "Amrawati Road, Near Kamal Plaza, Burhanpur, Madhya Pradesh 450331, India",
    "City": "Burhanpur",
    "State": "Madhya Pradesh",
    "RegionCode": "BRHP",
    "SubRegionCode": "BRHP",
    "Latitude": "21.3031",
    "Longitude": "76.2225",
    "AvailableFormats": "2D|3D"
  },
  "SRBU": {
    "VenueCode": "SRBU",
    "VenueName": "Star Cinemas: Burhanpur",
    "VenueAddress": "Tulsi Mall, 3rd Floor, Station Road Lalbagh, Opposite to Lal Bagh Higher Secondary School, Burhanpur, Madhya Pradesh 450331, India",
    "City": "Burhanpur",
    "State": "Madhya Pradesh",
    "RegionCode": "BRHP",
    "SubRegionCode": "BRHP",
    "Latitude": "21.3307",
    "Longitude": "76.2061",
    "AvailableFormats": "2D"
  },
  "CSSA": {
    "VenueCode": "CSSA",
    "VenueName": "Connplex Cinemas: Ahilyanagar",
    "VenueAddress": "3rd Floor, Kohinoor Mall, Premdan Chowk, Opposite Big Bazar, Ahilyanagar (Ahmednagar), Maharashtra 414003, India",
    "City": "Ahilyanagar (Ahmednagar)",
    "State": "Maharashtra",
    "RegionCode": "AHMED",
    "SubRegionCode": "AHMED",
    "Latitude": "19.1192",
    "Longitude": "74.7289",
    "AvailableFormats": "2D|3D"
  },
  "MYAN": {
    "VenueCode": "MYAN",
    "VenueName": "MY Cinema: Ahilya Nagar",
    "VenueAddress": "Pipeline Road, Savedi, Ahilyanagar (Ahmednagar), Maharashtra 414003, India",
    "City": "Ahilyanagar (Ahmednagar)",
    "State": "Maharashtra",
    "RegionCode": "AHMED",
    "SubRegionCode": "AHMED",
    "Latitude": "19.1313",
    "Longitude": "74.7301",
    "AvailableFormats": "2D|3D"
  },
  "EXCA": {
    "VenueCode": "EXCA",
    "VenueName": "Eylex Cinema: Sonai",
    "VenueAddress": "Kalyanam Lawns, A/P: Wanjarwadi Sonai, Tal: Nevasa, Ahilyanagar (Ahmednagar), Maharashtra 414105, India",
    "City": "Ahilyanagar (Ahmednagar)",
    "State": "Maharashtra",
    "RegionCode": "AHMED",
    "SubRegionCode": "AHMED",
    "Latitude": "19.3845",
    "Longitude": "74.7821",
    "AvailableFormats": "2D"
  },
  "CKSA": {
    "VenueCode": "CKSA",
    "VenueName": "Cinelife K Sera Sera: Ahilyanagar",
    "VenueAddress": "302, 3rd Floor, Biz Bay One, Nagar-Sambhajinagar Road, Near Nagar College Gate, Above Zudio Store, Ahilyanagar (Ahmednagar), Maharashtra 414001, India",
    "City": "Ahilyanagar (Ahmednagar)",
    "State": "Maharashtra",
    "RegionCode": "AHMED",
    "SubRegionCode": "AHMED",
    "Latitude": "19.0913",
    "Longitude": "74.7454",
    "AvailableFormats": "2D"
  },
  "JTNM": {
    "VenueCode": "JTNM",
    "VenueName": "NR Cinemas A/C Dts: Martur",
    "VenueAddress": "Konidena Road, Near Andhra Pragati Grameena Bank, Martur, Andhra Pradesh 523301, India",
    "City": "Martur",
    "State": "Andhra Pradesh",
    "RegionCode": "MART",
    "SubRegionCode": "MART",
    "Latitude": "15.9869",
    "Longitude": "80.1031",
    "AvailableFormats": "2D"
  },
  "CXKT": {
    "VenueCode": "CXKT",
    "VenueName": "Connplex Cinemas: Katihar",
    "VenueAddress": "IPG Mall, Near Dalan Chowk, Katihar Purina Highway, Katihar, Bihar 854105, India",
    "City": "Katihar",
    "State": "Bihar",
    "RegionCode": "KATI",
    "SubRegionCode": "KATI",
    "Latitude": "25.6067",
    "Longitude": "87.5533",
    "AvailableFormats": "2D"
  },
  "NCLM": {
    "VenueCode": "NCLM",
    "VenueName": "New Cinema (Lucky House): Mokama",
    "VenueAddress": "National Highway 31, Sakarwar Tola, Mokameh, Mokama, Bihar 803302, India",
    "City": "Mokama",
    "State": "Bihar",
    "RegionCode": "MOKA",
    "SubRegionCode": "MOKA",
    "Latitude": "25.3956",
    "Longitude": "85.9237",
    "AvailableFormats": "2D"
  },
  "JAAD": {
    "VenueCode": "JAAD",
    "VenueName": "Jeya Anand Theatre Dolby Atmos: Rajapalayam",
    "VenueAddress": "Vembakottai Road, PSK Nagar, Srirengapalayam, Near Muthu Medicals, Rajapalayam, Tamil Nadu 626117, India",
    "City": "Rajapalayam",
    "State": "Tamil Nadu",
    "RegionCode": "RAYM",
    "SubRegionCode": "RAYM",
    "Latitude": "9.44257",
    "Longitude": "77.5587",
    "AvailableFormats": "2D"
  },
  "RDCR": {
    "VenueCode": "RDCR",
    "VenueName": "Radiance Cinema: (Shanthi) Rajapalayam",
    "VenueAddress": "CHX3+762, South Sammanthapuram, Rajapalayam, Tamil Nadu 626117, India",
    "City": "Rajapalayam",
    "State": "Tamil Nadu",
    "RegionCode": "RAYM",
    "SubRegionCode": "RAYM",
    "Latitude": "9.44807",
    "Longitude": "77.553",
    "AvailableFormats": "2D"
  },
  "MEER": {
    "VenueCode": "MEER",
    "VenueName": "Meenakshi Cinemas Dolby Atmos A/C 4K: Rajapalayam",
    "VenueAddress": "61,Ashok Talkies Road, Rajapalayam,Virudhunagar, Near Rajapalayam Railway Station, Rajapalayam, Tamil Nadu 626117, India",
    "City": "Rajapalayam",
    "State": "Tamil Nadu",
    "RegionCode": "RAYM",
    "SubRegionCode": "RAYM",
    "Latitude": "9.4487",
    "Longitude": "77.5596",
    "AvailableFormats": "2D"
  },
  "SIBT": {
    "VenueCode": "SIBT",
    "VenueName": "Sri Balaji Theatre: Rajapalayam A/C",
    "VenueAddress": "K R Nagar, Rajapalayam, Near Sakthi Mariamman Temple, Rajapalayam, Tamil Nadu 626117, India",
    "City": "Rajapalayam",
    "State": "Tamil Nadu",
    "RegionCode": "RAYM",
    "SubRegionCode": "RAYM",
    "Latitude": "9.43512",
    "Longitude": "77.5697",
    "AvailableFormats": "2D"
  },
  "PVVB": {
    "VenueCode": "PVVB",
    "VenueName": "PVR: Fun City, Panipat",
    "VenueAddress": "Sector - 6, HUDA, Fun City Mall, Panipat, Haryana 132103, India",
    "City": "Panipat",
    "State": "Haryana",
    "RegionCode": "PAN",
    "SubRegionCode": "PAN",
    "Latitude": "29.4104",
    "Longitude": "76.9682",
    "AvailableFormats": "2D"
  },
  "FNPN": {
    "VenueCode": "FNPN",
    "VenueName": "Fun Cinemas: Mittal Mega Mall, Panipat",
    "VenueAddress": "Mittal`s Mega Mall, Sector 25-2, Panipat, Haryana 132103, India",
    "City": "Panipat",
    "State": "Haryana",
    "RegionCode": "PAN",
    "SubRegionCode": "PAN",
    "Latitude": "29.3762",
    "Longitude": "76.984",
    "AvailableFormats": "2D|3D"
  },
  "CRPX": {
    "VenueCode": "CRPX",
    "VenueName": "Cinecare Multiplex: Panipat",
    "VenueAddress": "2nd Floor, Angel Prime Mall, 12, Huda Sector 11, Panipat, Haryana 132103, India",
    "City": "Panipat",
    "State": "Haryana",
    "RegionCode": "PAN",
    "SubRegionCode": "PAN",
    "Latitude": "29.3814",
    "Longitude": "76.9802",
    "AvailableFormats": "2D"
  },
  "STET": {
    "VenueCode": "STET",
    "VenueName": "Surya Theater 4K Dolby Atmos: Erattupetta",
    "VenueAddress": "Rahmath Nagar, Erattupetta Road, Kaduvamuzhi, Near Hindustan Petroleum, Erattupetta, Kerala 686121, India",
    "City": "Erattupetta",
    "State": "Kerala",
    "RegionCode": "ERAT",
    "SubRegionCode": "ERAT",
    "Latitude": "9.68931",
    "Longitude": "76.7757",
    "AvailableFormats": "2D"
  },
  "METE": {
    "VenueCode": "METE",
    "VenueName": "Rajans Metro A/C: Erattupetta",
    "VenueAddress": "Kaduvamuzhi, Erattupetta, Near Erattupetta Police Station, Erattupetta, Kerala 686121, India",
    "City": "Erattupetta",
    "State": "Kerala",
    "RegionCode": "ERAT",
    "SubRegionCode": "ERAT",
    "Latitude": "9.68921",
    "Longitude": "76.7768",
    "AvailableFormats": "2D"
  },
  "BJML": {
    "VenueCode": "BJML",
    "VenueName": "Sree Balaji Movie Land A/C 4K: Punganur",
    "VenueAddress": "MBT Road, Near Om Shakthi Temple, Punganur, Andhra Pradesh 517247, India",
    "City": "Punganur",
    "State": "Andhra Pradesh",
    "RegionCode": "PGNR",
    "SubRegionCode": "PGNR",
    "Latitude": "13.3602",
    "Longitude": "78.5785",
    "AvailableFormats": "2D"
  },
  "MAVT": {
    "VenueCode": "MAVT",
    "VenueName": "Sri Venkateswara Mahal AC Dolby Atmos 2K: Punganur",
    "VenueAddress": "27-3 MBT Road, Beside Sri Padmavathi Jewellers, Near Old Busstand, Punganur, Andhra Pradesh 517247, India",
    "City": "Punganur",
    "State": "Andhra Pradesh",
    "RegionCode": "PGNR",
    "SubRegionCode": "PGNR",
    "Latitude": "13.3658",
    "Longitude": "78.5705",
    "AvailableFormats": "2D"
  },
  "MSRM": {
    "VenueCode": "MSRM",
    "VenueName": "MSR Movie Land: Punganur",
    "VenueAddress": "Vidya Nagar, Vet Hospital Road, Nagapyam, Punganur, Andhra Pradesh 517247, India",
    "City": "Punganur",
    "State": "Andhra Pradesh",
    "RegionCode": "PGNR",
    "SubRegionCode": "PGNR",
    "Latitude": "13.3639",
    "Longitude": "78.5685",
    "AvailableFormats": "2D"
  },
  "TJMP": {
    "VenueCode": "TJMP",
    "VenueName": "Taj Mahal Theater: Punganur",
    "VenueAddress": "Mumbai-Bombay Trunk Road, MBT Road, Punganur, Andhra Pradesh 517247, India",
    "City": "Punganur",
    "State": "Andhra Pradesh",
    "RegionCode": "PGNR",
    "SubRegionCode": "PGNR",
    "Latitude": "13.3639",
    "Longitude": "78.5722",
    "AvailableFormats": "2D"
  },
  "MHCK": {
    "VenueCode": "MHCK",
    "VenueName": "Meghraj Cinemaz: Koraput",
    "VenueAddress": "Megha Township, Manabar, Unnamed Road, Koraput, Odisha 764020, India",
    "City": "Koraput",
    "State": "Odisha",
    "RegionCode": "KOPT",
    "SubRegionCode": "KOPT",
    "Latitude": "18.8263",
    "Longitude": "82.7004",
    "AvailableFormats": "2D|3D"
  },
  "SVGP": {
    "VenueCode": "SVGP",
    "VenueName": "Sun Cinemax Venkata Gouri A/c DTS: Palakonda",
    "VenueAddress": "Rajam-Palkonda Road, Near Siva Temple, Palakonda, Andhra Pradesh 532440, India",
    "City": "Palakonda",
    "State": "Andhra Pradesh",
    "RegionCode": "PALK",
    "SubRegionCode": "PALK",
    "Latitude": "18.5997",
    "Longitude": "83.752",
    "AvailableFormats": "2D"
  },
  "KRRC": {
    "VenueCode": "KRRC",
    "VenueName": "Sri Rama and Sai Kalamandir A/c DTS: Palakonda",
    "VenueAddress": "Government Hospital Road, Near Ramakalamandir Sachivalayam, Palakonda, Andhra Pradesh 532440, India",
    "City": "Palakonda",
    "State": "Andhra Pradesh",
    "RegionCode": "PALK",
    "SubRegionCode": "PALK",
    "Latitude": "18.603",
    "Longitude": "83.7585",
    "AvailableFormats": "2D"
  },
  "IMCH": {
    "VenueCode": "IMCH",
    "VenueName": "Imperial Talkies: Namchi",
    "VenueAddress": "NMC Museum Building, Singithang, Shaheed Sanjog Chettri Marg, Namchi, Sikkim 737126, India",
    "City": "Namchi",
    "State": "Sikkim",
    "RegionCode": "NAMI",
    "SubRegionCode": "NAMI",
    "Latitude": "27.164",
    "Longitude": "88.3619",
    "AvailableFormats": "2D"
  },
  "CMCS": {
    "VenueCode": "CMCS",
    "VenueName": "Chhotu Maharaj Cine Cafe: Sangamner",
    "VenueAddress": "Survey No 108/32, Next to Hotel Padmini, Gunjalwadi Road, Ghulewadi- Sangamner, District- Ahmednagar, Sangamner, Maharashtra 422605, India",
    "City": "Sangamner",
    "State": "Maharashtra",
    "RegionCode": "SMNE",
    "SubRegionCode": "SMNE",
    "Latitude": "19.5978",
    "Longitude": "74.1888",
    "AvailableFormats": "2D"
  },
  "SGND": {
    "VenueCode": "SGND",
    "VenueName": "Sangeeth Picture Palace: Nandyal",
    "VenueAddress": "NK Road, Telugu Peta, Nandyal, Andhra Pradesh 518501, India",
    "City": "Nandyal",
    "State": "Andhra Pradesh",
    "RegionCode": "NADY",
    "SubRegionCode": "NADY",
    "Latitude": "15.4867",
    "Longitude": "78.4873",
    "AvailableFormats": "2D"
  },
  "RNAT": {
    "VenueCode": "RNAT",
    "VenueName": "Ramanath Theater A/C 4K DTS: Nandyal",
    "VenueAddress": "2/455-E-3, NK Road, Telugu Peta, Nandyala, Nandyal, Andhra Pradesh 518501, India",
    "City": "Nandyal",
    "State": "Andhra Pradesh",
    "RegionCode": "NADY",
    "SubRegionCode": "NADY",
    "Latitude": "15.486",
    "Longitude": "78.4861",
    "AvailableFormats": "2D"
  },
  "PRTN": {
    "VenueCode": "PRTN",
    "VenueName": "Pratap Picture Palace A/C 4K DTS: Nandyal",
    "VenueAddress": "Atmakur Road, Telugu Peta, Nandyal, Andhra Pradesh 518501, India",
    "City": "Nandyal",
    "State": "Andhra Pradesh",
    "RegionCode": "NADY",
    "SubRegionCode": "NADY",
    "Latitude": "15.4857",
    "Longitude": "78.4871",
    "AvailableFormats": "2D"
  },
  "MPTN": {
    "VenueCode": "MPTN",
    "VenueName": "Mini Prathap A/C DTS: Nandyal",
    "VenueAddress": "Atmakur Road, Telugu Peta, Near NTR Shopping Complex, Nandyal, Andhra Pradesh 518501, India",
    "City": "Nandyal",
    "State": "Andhra Pradesh",
    "RegionCode": "NADY",
    "SubRegionCode": "NADY",
    "Latitude": "15.4857",
    "Longitude": "78.4871",
    "AvailableFormats": "2D"
  },
  "ARCC": {
    "VenueCode": "ARCC",
    "VenueName": "Sri Rama Complex: Nandyal",
    "VenueAddress": "SBI Colony, Nandyal-Thimmanayunipeta Road, Nandyal, Andhra Pradesh 518501, India",
    "City": "Nandyal",
    "State": "Andhra Pradesh",
    "RegionCode": "NADY",
    "SubRegionCode": "NADY",
    "Latitude": "15.4742",
    "Longitude": "78.4866",
    "AvailableFormats": "2D"
  },
  "NTTE": {
    "VenueCode": "NTTE",
    "VenueName": "Nidhi Cinemas A/C 2K: Nandyal",
    "VenueAddress": "Telugu Peta, Atmakur Road, Near Karnataka Bank, Nandyal, Andhra Pradesh 518501, India",
    "City": "Nandyal",
    "State": "Andhra Pradesh",
    "RegionCode": "NADY",
    "SubRegionCode": "NADY",
    "Latitude": "15.4859",
    "Longitude": "78.4858",
    "AvailableFormats": "2D"
  },
  "ABND": {
    "VenueCode": "ABND",
    "VenueName": "Abhiram Theater: Nandyal",
    "VenueAddress": "Ramnath Cine Complex, Telugu Peta, Nandyal, Andhra Pradesh 518501, India",
    "City": "Nandyal",
    "State": "Andhra Pradesh",
    "RegionCode": "NADY",
    "SubRegionCode": "NADY",
    "Latitude": "15.4858",
    "Longitude": "78.4861",
    "AvailableFormats": "2D"
  },
  "KCSN": {
    "VenueCode": "KCSN",
    "VenueName": "KS Cineplex Screen 2 by DNC Theatres: Namakkal",
    "VenueAddress": "49, R.P Pudur, Salem - Namakkal Road, Namakkal, Tamil Nadu 637001, India",
    "City": "Namakkal",
    "State": "Tamil Nadu",
    "RegionCode": "NMKL",
    "SubRegionCode": "NMKL",
    "Latitude": "11.2264",
    "Longitude": "78.1637",
    "AvailableFormats": "2D"
  },
  "KCSA": {
    "VenueCode": "KCSA",
    "VenueName": "KS Cineplex Screen 1 by DNC Theatres: Namakkal",
    "VenueAddress": "49, R.P Pudur, Salem - Namakkal Road, Namakkal, Tamil Nadu 637001, India",
    "City": "Namakkal",
    "State": "Tamil Nadu",
    "RegionCode": "NMKL",
    "SubRegionCode": "NMKL",
    "Latitude": "11.2264",
    "Longitude": "78.1637",
    "AvailableFormats": "2D"
  },
  "DCKT": {
    "VenueCode": "DCKT",
    "VenueName": "Divine Cineplex: Kurukshetra",
    "VenueAddress": "Divine Business Park, New Bus Stand ,Pipli Road, Opposite New Bus Stand, Kurukshetra, Haryana 136118, India",
    "City": "Kurukshetra",
    "State": "Haryana",
    "RegionCode": "KURU",
    "SubRegionCode": "KURU",
    "Latitude": "29.9747",
    "Longitude": "76.8668",
    "AvailableFormats": "2D"
  },
  "MBBR": {
    "VenueCode": "MBBR",
    "VenueName": "MAR Basil EVM Theatre: Rajakumari",
    "VenueAddress": "X49X+CQX, Murikkumthotti - Senapathy, Vattapara Udumbanchola Road, Rajakumari, Kerala 685619, India",
    "City": "Rajakumari",
    "State": "Kerala",
    "RegionCode": "RAAJ",
    "SubRegionCode": "RAAJ",
    "Latitude": "9.9686",
    "Longitude": "77.1495",
    "AvailableFormats": "2D"
  },
  "RAMU": {
    "VenueCode": "RAMU",
    "VenueName": "Ramrajya Cineplex: Karanja Lad",
    "VenueAddress": "Near Ramayan Hotel, Sambhaji Chowk, Nagpur Aurangabad Highway, Karanja Lad, Maharashtra 444105, India",
    "City": "Karanja Lad",
    "State": "Maharashtra",
    "RegionCode": "KLAD",
    "SubRegionCode": "KLAD",
    "Latitude": "20.4777",
    "Longitude": "77.4556",
    "AvailableFormats": "2D"
  },
  "RACW": {
    "VenueCode": "RACW",
    "VenueName": "Ramrajya Cineplex (Screen 2): Karanja Lad",
    "VenueAddress": "Near Ramayan Hotel, Sambhaji Chowk, Nagpur Aurangabad Highway, Karanja Lad, Maharashtra 444105, India",
    "City": "Karanja Lad",
    "State": "Maharashtra",
    "RegionCode": "KLAD",
    "SubRegionCode": "KLAD",
    "Latitude": "20.4777",
    "Longitude": "77.4556",
    "AvailableFormats": "2D"
  },
  "MCHP": {
    "VenueCode": "MCHP",
    "VenueName": "Miraj Cinemas: Hoshiarpur",
    "VenueAddress": "Js Eminent Mall, Sutheri Road, Manavta Nagar, Hoshiarpur, Punjab 146001, India",
    "City": "Hoshiarpur",
    "State": "Punjab",
    "RegionCode": "HOSH",
    "SubRegionCode": "HOSH",
    "Latitude": "31.5289",
    "Longitude": "75.9076",
    "AvailableFormats": "2D|3D"
  },
  "TMHM": {
    "VenueCode": "TMHM",
    "VenueName": "Time Cinemas: Hoshiarpur",
    "VenueAddress": "The Time Square, Backside Government College,Phagwara Road,Hoshiarpur, Punjab 146001, India",
    "City": "Hoshiarpur",
    "State": "Punjab",
    "RegionCode": "HOSH",
    "SubRegionCode": "HOSH",
    "Latitude": "31.5248",
    "Longitude": "75.9022",
    "AvailableFormats": "2D"
  },
  "STXH": {
    "VenueCode": "STXH",
    "VenueName": "Swarn Theatre: Hoshiarpur",
    "VenueAddress": "Phagwara Road, Model Colony, Hoshiarpur, Punjab 146001, India",
    "City": "Hoshiarpur",
    "State": "Punjab",
    "RegionCode": "HOSH",
    "SubRegionCode": "HOSH",
    "Latitude": "31.5337",
    "Longitude": "75.905",
    "AvailableFormats": "2D"
  },
  "AGSG": {
    "VenueCode": "AGSG",
    "VenueName": "AG Star Cinema: Saila Khurd",
    "VenueAddress": "AG Star Cinemaz and Fitness, DTF ( Drive Thru Food ) on Chandigarh Hoshiarpur Highway, Near Sahota Petro Village Badhowan Saila Khurd, Hoshiarpur, Punjab 144529, India",
    "City": "Hoshiarpur",
    "State": "Punjab",
    "RegionCode": "HOSH",
    "SubRegionCode": "HOSH",
    "Latitude": "31.3192",
    "Longitude": "76.0614",
    "AvailableFormats": "2D"
  },
  "SIRA": {
    "VenueCode": "SIRA",
    "VenueName": "Sri Ramachandra Cinema 3D 2K LASER DOLBY 7.1",
    "VenueAddress": "Peranampattu, Ambur Road, Pernambut, Tamil Nadu 635810, India",
    "City": "Pernambut",
    "State": "Tamil Nadu",
    "RegionCode": "PERM",
    "SubRegionCode": "PERM",
    "Latitude": "12.9276",
    "Longitude": "78.716",
    "AvailableFormats": "2D"
  },
  "RCAN": {
    "VenueCode": "RCAN",
    "VenueName": "Shri Rajeswari Cinemas A/C 4K Dolby Atmos:Arni",
    "VenueAddress": "Dr. Ambedkar Nagar, State Highway 4, Near Bharat Petroleum, Arni, Tamil Nadu 632301, India",
    "City": "Arni",
    "State": "Tamil Nadu",
    "RegionCode": "ARNI",
    "SubRegionCode": "ARNI",
    "Latitude": "12.6678",
    "Longitude": "79.2885",
    "AvailableFormats": "2D"
  },
  "CWTB": {
    "VenueCode": "CWTB",
    "VenueName": "Cineworld Theater: Buhari",
    "VenueAddress": "Amrut shopping center, Plot no 162/A Buhari, Dist-Valod, Buhari, Gujarat 394630, India",
    "City": "Buhari",
    "State": "Gujarat",
    "RegionCode": "BUHA",
    "SubRegionCode": "BUHA",
    "Latitude": "20.974",
    "Longitude": "73.3054",
    "AvailableFormats": "2D"
  },
  "VTYM": {
    "VenueCode": "VTYM",
    "VenueName": "Vitross Cineplex: Miryalaguda",
    "VenueAddress": "Survey no 606, E/2, Edulaguda, Near RTO Office, Miryalaguda, Telangana 508207, India",
    "City": "Miryalaguda",
    "State": "Telangana",
    "RegionCode": "MRGD",
    "SubRegionCode": "MRGD",
    "Latitude": "16.8573",
    "Longitude": "79.5878",
    "AvailableFormats": "2D|3D"
  },
  "RRPP": {
    "VenueCode": "RRPP",
    "VenueName": "Raghava Theatre: Miryalaguda",
    "VenueAddress": "Church Road, Near GV Hospital, Miryalaguda, Telangana 508207, India",
    "City": "Miryalaguda",
    "State": "Telangana",
    "RegionCode": "MRGD",
    "SubRegionCode": "MRGD",
    "Latitude": "16.868",
    "Longitude": "79.5607",
    "AvailableFormats": "2D"
  },
  "ASMR": {
    "VenueCode": "ASMR",
    "VenueName": "Asian Srinivasa Theater: Miryalaguda",
    "VenueAddress": "Islampura Road, Beside Madhusudhan Reddy Hospital, Miryalaguda, Telangana 508207, India",
    "City": "Miryalaguda",
    "State": "Telangana",
    "RegionCode": "MRGD",
    "SubRegionCode": "MRGD",
    "Latitude": "16.8703",
    "Longitude": "79.5631",
    "AvailableFormats": "2D"
  },
  "RONO": {
    "VenueCode": "RONO",
    "VenueName": "ROONGTA CINEMAS: ASJ Grand Plaza, Muzaffarnagar",
    "VenueAddress": "ASJ Grand Plaza Mall, Bhopa Road, Dwarika Puri, Muzaffarnagar, Uttar Pradesh 251001, India",
    "City": "Muzaffarnagar",
    "State": "Uttar Pradesh",
    "RegionCode": "MUZ",
    "SubRegionCode": "MUZ",
    "Latitude": "29.474",
    "Longitude": "77.7158",
    "AvailableFormats": "2D|3D"
  },
  "MEMR": {
    "VenueCode": "MEMR",
    "VenueName": "Maya Multiplex: Muzaffarnagar",
    "VenueAddress": "498, Opp Saharanpur Bus Stand, GT Road, Rampuri, Roorkee Road, Near Bajaj Agency, Muzaffarnagar, Uttar Pradesh 251001, India",
    "City": "Muzaffarnagar",
    "State": "Uttar Pradesh",
    "RegionCode": "MUZ",
    "SubRegionCode": "MUZ",
    "Latitude": "29.4865",
    "Longitude": "77.6966",
    "AvailableFormats": "2D"
  },
  "CTMR": {
    "VenueCode": "CTMR",
    "VenueName": "Chandra Talkies: Muzaffarnagar",
    "VenueAddress": "NH 58, Civil Lines North, Muzaffarnagar, Uttar Pradesh 251001, India",
    "City": "Muzaffarnagar",
    "State": "Uttar Pradesh",
    "RegionCode": "MUZ",
    "SubRegionCode": "MUZ",
    "Latitude": "29.4762",
    "Longitude": "77.6966",
    "AvailableFormats": "2D"
  },
  "PMTT": {
    "VenueCode": "PMTT",
    "VenueName": "Tyagi Theme Park Multiplex: Budhana",
    "VenueAddress": "Charan Singh Tihara, Budhana Barut Road, Budhana, Uttar Pradesh 251309, India",
    "City": "Budhana",
    "State": "Uttar Pradesh",
    "RegionCode": "MUZ",
    "SubRegionCode": "MUZ",
    "Latitude": "29.2771",
    "Longitude": "77.471",
    "AvailableFormats": "2D"
  },
  "PSLX": {
    "VenueCode": "PSLX",
    "VenueName": "PVR: SUPERPLEX Lulu, Lucknow",
    "VenueAddress": "2nd Floor, Lulu Mall, Sushant Golf City, IBB-2T-5, Shaheed Path, Lucknow Tahsil, Lucknow, Uttar Pradesh 226030, India",
    "City": "Lucknow",
    "State": "Uttar Pradesh",
    "RegionCode": "LUCK",
    "SubRegionCode": "LUCK",
    "Latitude": "26.785",
    "Longitude": "80.9922",
    "AvailableFormats": "2D|3D|4DX"
  },
  "IPPL": {
    "VenueCode": "IPPL",
    "VenueName": "INOX: Megaplex Phoenix Palassio Mall",
    "VenueAddress": "INOX Leisure Ltd., 3rd Floor, Phoenix Palassio Mall Amar Saheed Path, Gomti Nagar Extension, Lucknow, Uttar Pradesh 226010, India",
    "City": "Lucknow",
    "State": "Uttar Pradesh",
    "RegionCode": "LUCK",
    "SubRegionCode": "LUCK",
    "Latitude": "26.8085",
    "Longitude": "81.0123",
    "AvailableFormats": "2D|MX4D|IMAX 2D|3D|MX4D 3D"
  },
  "MMSG": {
    "VenueCode": "MMSG",
    "VenueName": "MovieMax: Shalimar Gateway",
    "VenueAddress": "Shalimar Gateway Mall, Bus Stand, Alambagh, Near Alambagh, Railway Colony, Lucknow, Uttar Pradesh 226005, India",
    "City": "Lucknow",
    "State": "Uttar Pradesh",
    "RegionCode": "LUCK",
    "SubRegionCode": "LUCK",
    "Latitude": "26.8194",
    "Longitude": "80.9072",
    "AvailableFormats": "3D|2D"
  },
  "INEL": {
    "VenueCode": "INEL",
    "VenueName": "INOX: Megaplex Emerald, Lucknow",
    "VenueAddress": "3rd Floor, Emerald Mall, CP 138, Sector D1, LDA Colony, Ashiyana, Lucknow, Uttar Pradesh 226012, India",
    "City": "Lucknow",
    "State": "Uttar Pradesh",
    "RegionCode": "LUCK",
    "SubRegionCode": "LUCK",
    "Latitude": "26.788",
    "Longitude": "80.9105",
    "AvailableFormats": "2D|3D"
  },
  "COAC": {
    "VenueCode": "COAC",
    "VenueName": "Cinepolis: One Awadh Centre, Lucknow",
    "VenueAddress": "Plot No 384, Vibhuti Khand, Gomti Nagar, Gomti Nagar Road, Lucknow, Uttar Pradesh 226010, India",
    "City": "Lucknow",
    "State": "Uttar Pradesh",
    "RegionCode": "LUCK",
    "SubRegionCode": "LUCK",
    "Latitude": "26.8624",
    "Longitude": "81.0105",
    "AvailableFormats": "3D|2D"
  },
  "WVLK": {
    "VenueCode": "WVLK",
    "VenueName": "Wave: The Wave Mall, Lucknow",
    "VenueAddress": "TC-54, Vibhuti Khand, Gomti Nagar, Lucknow, Uttar Pradesh 226010, India",
    "City": "Lucknow",
    "State": "Uttar Pradesh",
    "RegionCode": "LUCK",
    "SubRegionCode": "LUCK",
    "Latitude": "26.8701",
    "Longitude": "80.9971",
    "AvailableFormats": "2D"
  },
  "PPXL": {
    "VenueCode": "PPXL",
    "VenueName": "PVR: Phoenix, Lucknow",
    "VenueAddress": "4th Floor, Phoenix United Mall, Kanpur - Lucknow Road, LDA Alambagh, Sector B, LDA Colony, Lucknow, Uttar Pradesh 226012, India",
    "City": "Lucknow",
    "State": "Uttar Pradesh",
    "RegionCode": "LUCK",
    "SubRegionCode": "LUCK",
    "Latitude": "26.7991",
    "Longitude": "80.8961",
    "AvailableFormats": "2D|3D"
  },
  "PSML": {
    "VenueCode": "PSML",
    "VenueName": "PVR: Saharaganj Mall, Lucknow",
    "VenueAddress": "4th floor, Saharaganj Mall, Shahnajaf Road, Hazratganj, Lucknow, Uttar Pradesh 226001, India",
    "City": "Lucknow",
    "State": "Uttar Pradesh",
    "RegionCode": "LUCK",
    "SubRegionCode": "LUCK",
    "Latitude": "26.855",
    "Longitude": "80.9469",
    "AvailableFormats": "2D|3D"
  },
  "FNLK": {
    "VenueCode": "FNLK",
    "VenueName": "Fun Cinemas: Fun Republic Mall, Lucknow",
    "VenueAddress": "Near Eldeco Greens, Nehru Enclave, Gomti Nagar, Opposite Lohia Park, Lucknow, Uttar Pradesh 226010, India",
    "City": "Lucknow",
    "State": "Uttar Pradesh",
    "RegionCode": "LUCK",
    "SubRegionCode": "LUCK",
    "Latitude": "26.8582",
    "Longitude": "80.9762",
    "AvailableFormats": "2D|3D"
  },
  "ILUM": {
    "VenueCode": "ILUM",
    "VenueName": "INOX: Umrao Mall, Mahanagar",
    "VenueAddress": "INOX Leisure LTD, 2nd Floor, Umrao Mall, Mahanagar, Near Badshah Nagar Metro Station, Lucknow, Uttar Pradesh 226006, India",
    "City": "Lucknow",
    "State": "Uttar Pradesh",
    "RegionCode": "LUCK",
    "SubRegionCode": "LUCK",
    "Latitude": "26.8713",
    "Longitude": "80.9584",
    "AvailableFormats": "3D|2D"
  },
  "ILCM": {
    "VenueCode": "ILCM",
    "VenueName": "INOX: Crown Mall, Lucknow",
    "VenueAddress": "INOX  Leisure LTD, 3rd Floor, Crown Mall, Faizabad Road, Atif Vihar, Opposite BBD University, Lucknow, Uttar Pradesh 226028, India",
    "City": "Lucknow",
    "State": "Uttar Pradesh",
    "RegionCode": "LUCK",
    "SubRegionCode": "LUCK",
    "Latitude": "26.8886",
    "Longitude": "81.0554",
    "AvailableFormats": "3D|2D"
  },
  "MSNL": {
    "VenueCode": "MSNL",
    "VenueName": "Novelty Dolby Atmos 4K: Aliganj",
    "VenueAddress": "Kapoorthalla Commercial Complex, 4, Aliganj, Behind Sahara Towers, Lucknow, Uttar Pradesh 226020, India",
    "City": "Lucknow",
    "State": "Uttar Pradesh",
    "RegionCode": "LUCK",
    "SubRegionCode": "LUCK",
    "Latitude": "26.8819",
    "Longitude": "80.9466",
    "AvailableFormats": "2D"
  },
  "VINB": {
    "VenueCode": "VINB",
    "VenueName": "Vin Palace Multiplex Dolby Atmos: Vikas Nagar",
    "VenueAddress": "6, Tedhi Pulia Ring Road, Sector 13, Sector 14, Kalyanpur, Lucknow, Uttar Pradesh 226002, India",
    "City": "Lucknow",
    "State": "Uttar Pradesh",
    "RegionCode": "LUCK",
    "SubRegionCode": "LUCK",
    "Latitude": "26.9043",
    "Longitude": "80.9611",
    "AvailableFormats": "3D|2D"
  },
  "SALW": {
    "VenueCode": "SALW",
    "VenueName": "SRS Cinemas: City Mall, Lucknow",
    "VenueAddress": "2nd Floor, Vipul Khand 4, Gomti Nagar, Near CMS School, Lucknow, Uttar Pradesh 226010, India",
    "City": "Lucknow",
    "State": "Uttar Pradesh",
    "RegionCode": "LUCK",
    "SubRegionCode": "LUCK",
    "Latitude": "26.846",
    "Longitude": "80.9875",
    "AvailableFormats": "2D"
  },
  "PRTB": {
    "VenueCode": "PRTB",
    "VenueName": "Pratibha Cinema: Lucknow",
    "VenueAddress": "38, Darbari Lal Sharma Marg, Major Banks Road, Near Secretariat Bapu Bhawan, Lucknow, Uttar Pradesh 226001, India",
    "City": "Lucknow",
    "State": "Uttar Pradesh",
    "RegionCode": "LUCK",
    "SubRegionCode": "LUCK",
    "Latitude": "26.8417",
    "Longitude": "80.9434",
    "AvailableFormats": "2D"
  },
  "NCIL": {
    "VenueCode": "NCIL",
    "VenueName": "Novelty MGS Cinemas Dolby Atmos: Lalbagh",
    "VenueAddress": "Lalbagh Crossing, Near Dhyanidhan Park Road, Lucknow, Uttar Pradesh 226001, India",
    "City": "Lucknow",
    "State": "Uttar Pradesh",
    "RegionCode": "LUCK",
    "SubRegionCode": "LUCK",
    "Latitude": "26.848",
    "Longitude": "80.9394",
    "AvailableFormats": "2D|3D"
  },
  "PSUL": {
    "VenueCode": "PSUL",
    "VenueName": "PVR: Sahu, Lucknow",
    "VenueAddress": "PVR Sahu Theatre Building, Love Lane, Hazratganj, Lucknow, Uttar Pradesh 226001, India",
    "City": "Lucknow",
    "State": "Uttar Pradesh",
    "RegionCode": "LUCK",
    "SubRegionCode": "LUCK",
    "Latitude": "26.8484",
    "Longitude": "80.9445",
    "AvailableFormats": "2D"
  },
  "SCLK": {
    "VenueCode": "SCLK",
    "VenueName": "Shubham Cinema: Lucknow",
    "VenueAddress": "Kesar, 5, Cantonment Road, Kaiserbagh Officer`s Colony, Qaiserbagh, Lucknow, Uttar Pradesh 226001, India",
    "City": "Lucknow",
    "State": "Uttar Pradesh",
    "RegionCode": "LUCK",
    "SubRegionCode": "LUCK",
    "Latitude": "26.8478",
    "Longitude": "80.9337",
    "AvailableFormats": "2D"
  },
  "ADDC": {
    "VenueCode": "ADDC",
    "VenueName": "Antas DD Cinemas: Lucknow",
    "VenueAddress": "1/23, Vardan Khand, Sector 1, Gomti Nagar, Makhdoom Pur, Lucknow, Uttar Pradesh 226010, India",
    "City": "Lucknow",
    "State": "Uttar Pradesh",
    "RegionCode": "LUCK",
    "SubRegionCode": "LUCK",
    "Latitude": "26.8362",
    "Longitude": "81.002",
    "AvailableFormats": "2D"
  },
  "OACL": {
    "VenueCode": "OACL",
    "VenueName": "7D Masti: One Awadh Centre, Lucknow",
    "VenueAddress": "3rd Floor, Plot No. 384, Gomti Nagar Rd, Opposite Apna Bazaar, Near One Awadh Centre Mall, Vibhuti Khand Road, Gomti Nagar, Lucknow, Uttar Pradesh 226010, India",
    "City": "Lucknow",
    "State": "Uttar Pradesh",
    "RegionCode": "LUCK",
    "SubRegionCode": "LUCK",
    "Latitude": "26.8622",
    "Longitude": "81.0108",
    "AvailableFormats": "7D"
  },
  "OOCF": {
    "VenueCode": "OOCF",
    "VenueName": "OHM Omjee Cinemas: Faridkot",
    "VenueAddress": "National Highway 54, Pakka, Faridkot, Punjab 151203, India",
    "City": "Faridkot",
    "State": "Punjab",
    "RegionCode": "DKOT",
    "SubRegionCode": "DKOT",
    "Latitude": "30.702",
    "Longitude": "74.8131",
    "AvailableFormats": "2D"
  },
  "GPMF": {
    "VenueCode": "GPMF",
    "VenueName": "Gill Plaza Multiplex: Faridkot",
    "VenueAddress": "Gills Palace, Circular Road, Balbir Basti, Faridkot, Punjab 151203, India",
    "City": "Faridkot",
    "State": "Punjab",
    "RegionCode": "DKOT",
    "SubRegionCode": "DKOT",
    "Latitude": "30.6768",
    "Longitude": "74.7611",
    "AvailableFormats": "2D"
  },
  "SSDG": {
    "VenueCode": "SSDG",
    "VenueName": "Sanskruti Silver Screen Multiplex: Dholka",
    "VenueAddress": "Parshwanath Complex, Bavla - Dholka Road, Kalikund, Dholka, Gujarat 382225, India",
    "City": "Dholka",
    "State": "Gujarat",
    "RegionCode": "DHOL",
    "SubRegionCode": "DHOL",
    "Latitude": "22.7436",
    "Longitude": "72.4388",
    "AvailableFormats": "2D"
  },
  "SKRS": {
    "VenueCode": "SKRS",
    "VenueName": "SK Cinemax: (AC 2K Digital 7.1 Surround Sound)",
    "VenueAddress": "Near Axis Bank, Main Road, Rama Krishna Padhi Marg, Paralakhemundi, Odisha 761200, India",
    "City": "Paralakhemundi",
    "State": "Odisha",
    "RegionCode": "PRKM",
    "SubRegionCode": "PRKM",
    "Latitude": "18.7846",
    "Longitude": "84.0911",
    "AvailableFormats": "2D"
  },
  "NTTP": {
    "VenueCode": "NTTP",
    "VenueName": "Nataraj: Paralakhemundi (A/C 5.1 Dolbi Digital)",
    "VenueAddress": "Palace Street, Paralakhemundi, Paralakhemundi, Odisha 761200, India",
    "City": "Paralakhemundi",
    "State": "Odisha",
    "RegionCode": "PRKM",
    "SubRegionCode": "PRKM",
    "Latitude": "18.7783",
    "Longitude": "84.0937",
    "AvailableFormats": "2D"
  },
  "SLTP": {
    "VenueCode": "SLTP",
    "VenueName": "Sri Laxmi Talkies: Paralakhemundi",
    "VenueAddress": "Sri Laxmi Talkies, Hospital Road, Srinivasa General Store, Paralakhemundi, Odisha 761200, India",
    "City": "Paralakhemundi",
    "State": "Odisha",
    "RegionCode": "PRKM",
    "SubRegionCode": "PRKM",
    "Latitude": "18.776",
    "Longitude": "84.0872",
    "AvailableFormats": "2D"
  },
  "JTLC": {
    "VenueCode": "JTLC",
    "VenueName": "Lakshmi Theatre: Chodavaram",
    "VenueAddress": "Gunisetti Vari Veedhi, Near Vinayak Temple Nowdu Veedhi, Chodavaram, Andhra Pradesh 531036, India",
    "City": "Chodavaram",
    "State": "Andhra Pradesh",
    "RegionCode": "CDVM",
    "SubRegionCode": "CDVM",
    "Latitude": "17.8299",
    "Longitude": "82.9374",
    "AvailableFormats": "2D"
  },
  "POON": {
    "VenueCode": "POON",
    "VenueName": "Poorna Theatre A/c Dolby-7.1: Chodavaram",
    "VenueAddress": "Near Poorna Theatre, Venkannapalem, Visakhapatnam, Chodavaram, Andhra Pradesh 530001, India",
    "City": "Chodavaram",
    "State": "Andhra Pradesh",
    "RegionCode": "CDVM",
    "SubRegionCode": "CDVM",
    "Latitude": "17.8286",
    "Longitude": "82.9348",
    "AvailableFormats": "2D"
  },
  "CCPC": {
    "VenueCode": "CCPC",
    "VenueName": "Cosmo Palace Cinema: Raisinghnagar",
    "VenueAddress": "22 PS Road, Near - Raisingnagar railway station, Raisinghnagar, Rajasthan 335051, India",
    "City": "Raisinghnagar",
    "State": "Rajasthan",
    "RegionCode": "RSNG",
    "SubRegionCode": "RSNG",
    "Latitude": "29.5374",
    "Longitude": "73.4503",
    "AvailableFormats": "2D"
  },
  "DCKC": {
    "VenueCode": "DCKC",
    "VenueName": "Dev Cinemas: Kanichar",
    "VenueAddress": "Dev Associates, Kottiyar Road, Kanichar, Near Kanichar Sree Subrahmanya Temple, Kanichar, Kerala 670674, India",
    "City": "Kanichar",
    "State": "Kerala",
    "RegionCode": "KANC",
    "SubRegionCode": "KANC",
    "Latitude": "11.9054",
    "Longitude": "75.7844",
    "AvailableFormats": "2D"
  },
  "CPRT": {
    "VenueCode": "CPRT",
    "VenueName": "City Pride Multiplex: Shivaji Nagar, Ratnagiri",
    "VenueAddress": "Siddhivinayak City Center, Shivajinagar, Ratnagiri, Maharashtra 415612, India",
    "City": "Ratnagiri",
    "State": "Maharashtra",
    "RegionCode": "RATN",
    "SubRegionCode": "RATN",
    "Latitude": "16.9915",
    "Longitude": "73.3238",
    "AvailableFormats": "2D|3D"
  },
  "EYHZ": {
    "VenueCode": "EYHZ",
    "VenueName": "Eylex Cinema: Hazaribagh",
    "VenueAddress": "Indralok Tower, 4th floor, Main Road Gwal Toli Chowk, Azad Mahalla, Hazaribagh, Jharkhand 825301, India",
    "City": "Hazaribagh",
    "State": "Jharkhand",
    "RegionCode": "HAZA",
    "SubRegionCode": "HAZA",
    "Latitude": "23.9914",
    "Longitude": "85.3541",
    "AvailableFormats": "2D"
  },
  "ARBL": {
    "VenueCode": "ARBL",
    "VenueName": "ARD Cinemall: Buldana",
    "VenueAddress": "ARD Green Valley, Malkapur Road, Opposite Hero Honda Showroom, Buldana, Maharashtra 443001, India",
    "City": "Buldana",
    "State": "Maharashtra",
    "RegionCode": "BULD",
    "SubRegionCode": "BULD",
    "Latitude": "20.5467",
    "Longitude": "76.1763",
    "AvailableFormats": "2D"
  },
  "SBTB": {
    "VenueCode": "SBTB",
    "VenueName": "Shyam Talkies: Buldana",
    "VenueAddress": "Near Weekly Market, Jaistambh Chowk, Buldana, Maharashtra 443001, India",
    "City": "Buldana",
    "State": "Maharashtra",
    "RegionCode": "BULD",
    "SubRegionCode": "BULD",
    "Latitude": "20.5383",
    "Longitude": "76.1807",
    "AvailableFormats": "2D"
  },
  "MMCK": {
    "VenueCode": "MMCK",
    "VenueName": "Murli Metro Cinema: Katghora",
    "VenueAddress": "Murli Metro Cinema, Near Gopal Petro Pump, Bilaspur - Katghora Highway, Katghora, Chhattisgarh 495445, India",
    "City": "Katghora",
    "State": "Chhattisgarh",
    "RegionCode": "KATG",
    "SubRegionCode": "KATG",
    "Latitude": "22.4996",
    "Longitude": "82.5419",
    "AvailableFormats": "2D"
  },
  "PLMR": {
    "VenueCode": "PLMR",
    "VenueName": "Ranga Mahal Theater: Palamaner",
    "VenueAddress": "Building No.13, 132, Lingayath Street, Palamaner, Andhra Pradesh 517408, India",
    "City": "Palamaner",
    "State": "Andhra Pradesh",
    "RegionCode": "PLMN",
    "SubRegionCode": "PLMN",
    "Latitude": "13.2052",
    "Longitude": "78.7424",
    "AvailableFormats": "2D"
  },
  "BIJH": {
    "VenueCode": "BIJH",
    "VenueName": "B4 Cinema: Jhabua",
    "VenueAddress": "Infront of College Ground, Ranapur Road, Jhabua, Madhya Pradesh 457661, India",
    "City": "Jhabua",
    "State": "Madhya Pradesh",
    "RegionCode": "JHAB",
    "SubRegionCode": "JHAB",
    "Latitude": "22.7609",
    "Longitude": "74.5879",
    "AvailableFormats": "2D"
  },
  "SDRT": {
    "VenueCode": "SDRT",
    "VenueName": "Sudarshan Theatre: Rotari Nagar, Tekkali",
    "VenueAddress": "Adi Andhra St, Rotari Nagar, Ayodhyapuram, Tekkali, Andhra Pradesh 532201, India",
    "City": "Tekkali",
    "State": "Andhra Pradesh",
    "RegionCode": "TKLI",
    "SubRegionCode": "TKLI",
    "Latitude": "18.6082",
    "Longitude": "84.2318",
    "AvailableFormats": "2D"
  },
  "PRDC": {
    "VenueCode": "PRDC",
    "VenueName": "President Cinema: Dasuya",
    "VenueAddress": "Adarsh Nagar, GT Road, Dasuya, Punjab 144205, India",
    "City": "Dasuya",
    "State": "Punjab",
    "RegionCode": "DASU",
    "SubRegionCode": "DASU",
    "Latitude": "31.8225",
    "Longitude": "75.6601",
    "AvailableFormats": "2D"
  },
  "OMJA": {
    "VenueCode": "OMJA",
    "VenueName": "Omjee Time Cinemas: Mukerian",
    "VenueAddress": "Talwara Road, Near Mankotia Farm, Bagowal, Mukerian, Punjab 144211, India",
    "City": "Mukerian",
    "State": "Punjab",
    "RegionCode": "MUKE",
    "SubRegionCode": "MUKE",
    "Latitude": "31.9477",
    "Longitude": "75.6242",
    "AvailableFormats": "2D"
  },
  "VKCR": {
    "VenueCode": "VKCR",
    "VenueName": "V K Central Multiplex: Rayagada",
    "VenueAddress": "VK Central Mall, JK Road, Thumbiguda, Rayagada, Odisha 765001, India",
    "City": "Rayagada",
    "State": "Odisha",
    "RegionCode": "RADA",
    "SubRegionCode": "RADA",
    "Latitude": "19.1925",
    "Longitude": "83.417",
    "AvailableFormats": "2D"
  },
  "ATRT": {
    "VenueCode": "ATRT",
    "VenueName": "Ashok Talkies: Rayagada",
    "VenueAddress": "College Road, Gandhi Nagar, Rayagada, Odisha 765001, India",
    "City": "Rayagada",
    "State": "Odisha",
    "RegionCode": "RADA",
    "SubRegionCode": "RADA",
    "Latitude": "19.1759",
    "Longitude": "83.4137",
    "AvailableFormats": "2D"
  },
  "WVRP": {
    "VenueCode": "WVRP",
    "VenueName": "Wave: Rudrapur",
    "VenueAddress": "Metropolis Mall, 3rd Floor, Plot no. A IIE, Panth Nagar, NH 87, Udham Singh Nagar, Rudrapur, Uttarakhand 263154, India",
    "City": "Rudrapur",
    "State": "Uttarakhand",
    "RegionCode": "RUDP",
    "SubRegionCode": "RUDP",
    "Latitude": "29.0019",
    "Longitude": "79.3994",
    "AvailableFormats": "2D"
  },
  "MVRP": {
    "VenueCode": "MVRP",
    "VenueName": "Movietime Cinemas: Rudrapur",
    "VenueAddress": "Ground Floor, Old Chawla Cinema, Gaba Chowk, Near Essar Petrol Pump, Rudrapur, Uttarakhand 263153, India",
    "City": "Rudrapur",
    "State": "Uttarakhand",
    "RegionCode": "RUDP",
    "SubRegionCode": "RUDP",
    "Latitude": "28.9757",
    "Longitude": "79.3866",
    "AvailableFormats": "2D"
  },
  "FCAX": {
    "VenueCode": "FCAX",
    "VenueName": "Fun Cinemas Rave Multiplex: Rudrapur",
    "VenueAddress": "Skylark Petals, Kashipur Road, Near Samiah Lake, Rudrapur, Uttarakhand 263153, India",
    "City": "Rudrapur",
    "State": "Uttarakhand",
    "RegionCode": "RUDP",
    "SubRegionCode": "RUDP",
    "Latitude": "28.9827",
    "Longitude": "79.3582",
    "AvailableFormats": "2D"
  },
  "CTLC": {
    "VenueCode": "CTLC",
    "VenueName": "Cinemaoo The Luxury: Chapra",
    "VenueAddress": "Ware House Colony, Main Road, Near Gudri Chowk, Chapra, Bihar 841301, India",
    "City": "Chapra",
    "State": "Bihar",
    "RegionCode": "CHPR",
    "SubRegionCode": "CHPR",
    "Latitude": "25.7875",
    "Longitude": "84.7145",
    "AvailableFormats": "2D"
  },
  "JCHB": {
    "VenueCode": "JCHB",
    "VenueName": "Jyoti Cinema: Chapra",
    "VenueAddress": "Sri Nandan Path Road, Dahiyawan Tola, Near Astha Nursing Home, Chapra, Bihar 841301, India",
    "City": "Chapra",
    "State": "Bihar",
    "RegionCode": "CHPR",
    "SubRegionCode": "CHPR",
    "Latitude": "25.7839",
    "Longitude": "84.7407",
    "AvailableFormats": "2D"
  },
  "SELP": {
    "VenueCode": "SELP",
    "VenueName": "Sanelite Cinemas: Patan",
    "VenueAddress": "Kesargreen Commerical Hub, Near Sudama Hotel, Chanasma Road, Patan, Gujarat 384265, India",
    "City": "Patan",
    "State": "Gujarat",
    "RegionCode": "PATA",
    "SubRegionCode": "PATA",
    "Latitude": "23.8286",
    "Longitude": "72.1175",
    "AvailableFormats": "2D"
  },
  "VCPG": {
    "VenueCode": "VCPG",
    "VenueName": "Vijay Cinema: Patan, Gujarat",
    "VenueAddress": "Tirupati Bazaar Road, Near - Siddhpur Cross Road, Patan, Gujarat 384265, India",
    "City": "Patan",
    "State": "Gujarat",
    "RegionCode": "PATA",
    "SubRegionCode": "PATA",
    "Latitude": "23.8523",
    "Longitude": "72.1367",
    "AvailableFormats": "2D"
  },
  "ASCX": {
    "VenueCode": "ASCX",
    "VenueName": "Aashirvad Cineplexx: Kadappra",
    "VenueAddress": "Mall Grand, Thiruvalla Mavelikkara Road, Thiruvalla, Kerala 689621, India",
    "City": "Thiruvalla",
    "State": "Kerala",
    "RegionCode": "THVL",
    "SubRegionCode": "THVL",
    "Latitude": "9.34101",
    "Longitude": "76.5341",
    "AvailableFormats": "2D"
  },